[
  {
    "name": "Tokyo",
    "iso": "JPN",
    "latitude": 35.6895,
    "longitude": 139.6917,
    "population": 37393000
  },
  {
    "name": "Delhi",
    "iso": "IND",
    "latitude": 28.6667,
    "longitude": 77.2167,
    "population": 30291000
  },
  {
    "name": "Shanghai",
    "iso": "CHN",
    "latitude": 31.2222,
    "longitude": 121.4581,
    "population": 27058000
  },
  {
    "name": "São Paulo",
    "iso": "BRA",
    "latitude": -23.5475,
    "longitude": -46.6361,
    "population": 22043000
  },
  {
    "name": "Ciudad de México (Mexico City)",
    "iso": "MEX",
    "latitude": 19.4273,
    "longitude": -99.1419,
    "population": 21782000
  },
  {
    "name": "Dhaka",
    "iso": "BGD",
    "latitude": 23.7104,
    "longitude": 90.4074,
    "population": 21006000
  },
  {
    "name": "Al-Qahirah (Cairo)",
    "iso": "EGY",
    "latitude": 30.0392,
    "longitude": 31.2394,
    "population": 20901000
  },
  {
    "name": "Beijing",
    "iso": "CHN",
    "latitude": 39.9075,
    "longitude": 116.3972,
    "population": 20463000
  },
  {
    "name": "Mumbai (Bombay)",
    "iso": "IND",
    "latitude": 19.074,
    "longitude": 72.8808,
    "population": 20411000
  },
  {
    "name": "Kinki M.M.A. (Osaka)",
    "iso": "JPN",
    "latitude": 34.6758,
    "longitude": 135.5538,
    "population": 19165000
  },
  {
    "name": "New York-Newark",
    "iso": "USA",
    "latitude": 40.717,
    "longitude": -74.0037,
    "population": 18804000
  },
  {
    "name": "Karachi",
    "iso": "PAK",
    "latitude": 24.9056,
    "longitude": 67.0822,
    "population": 16094000
  },
  {
    "name": "Chongqing",
    "iso": "CHN",
    "latitude": 29.5628,
    "longitude": 106.5528,
    "population": 15872000
  },
  {
    "name": "Istanbul",
    "iso": "TUR",
    "latitude": 41.0138,
    "longitude": 28.9497,
    "population": 15190000
  },
  {
    "name": "Buenos Aires",
    "iso": "ARG",
    "latitude": -34.6051,
    "longitude": -58.4004,
    "population": 15154000
  },
  {
    "name": "Kolkata (Calcutta)",
    "iso": "IND",
    "latitude": 22.5335,
    "longitude": 88.356,
    "population": 14850000
  },
  {
    "name": "Lagos",
    "iso": "NGA",
    "latitude": 6.4531,
    "longitude": 3.3958,
    "population": 14368000
  },
  {
    "name": "Kinshasa",
    "iso": "COD",
    "latitude": -4.3276,
    "longitude": 15.3136,
    "population": 14342000
  },
  {
    "name": "Manila",
    "iso": "PHL",
    "latitude": 14.6042,
    "longitude": 120.9822,
    "population": 13923000
  },
  {
    "name": "Tianjin",
    "iso": "CHN",
    "latitude": 39.1088,
    "longitude": 117.1886,
    "population": 13589000
  },
  {
    "name": "Rio de Janeiro",
    "iso": "BRA",
    "latitude": -22.9028,
    "longitude": -43.2075,
    "population": 13458000
  },
  {
    "name": "Guangzhou, Guangdong",
    "iso": "CHN",
    "latitude": 23.1255,
    "longitude": 113.2574,
    "population": 13302000
  },
  {
    "name": "Lahore",
    "iso": "PAK",
    "latitude": 31.5497,
    "longitude": 74.3436,
    "population": 12642000
  },
  {
    "name": "Moskva (Moscow)",
    "iso": "RUS",
    "latitude": 55.755,
    "longitude": 37.6218,
    "population": 12538000
  },
  {
    "name": "Los Angeles-Long Beach-Santa Ana",
    "iso": "USA",
    "latitude": 34.0317,
    "longitude": -118.2417,
    "population": 12447000
  },
  {
    "name": "Shenzhen",
    "iso": "CHN",
    "latitude": 22.5415,
    "longitude": 114.0634,
    "population": 12357000
  },
  {
    "name": "Bangalore",
    "iso": "IND",
    "latitude": 12.9719,
    "longitude": 77.5937,
    "population": 12327000
  },
  {
    "name": "Paris",
    "iso": "FRA",
    "latitude": 48.8534,
    "longitude": 2.3488,
    "population": 11017000
  },
  {
    "name": "Bogotá",
    "iso": "COL",
    "latitude": 4.6097,
    "longitude": -74.0818,
    "population": 10978000
  },
  {
    "name": "Chennai (Madras)",
    "iso": "IND",
    "latitude": 13.0531,
    "longitude": 80.2488,
    "population": 10971000
  },
  {
    "name": "Jakarta",
    "iso": "IDN",
    "latitude": -6.2118,
    "longitude": 106.8416,
    "population": 10770000
  },
  {
    "name": "Lima",
    "iso": "PER",
    "latitude": -12.0432,
    "longitude": -77.0282,
    "population": 10719000
  },
  {
    "name": "Krung Thep (Bangkok)",
    "iso": "THA",
    "latitude": 13.722,
    "longitude": 100.5252,
    "population": 10539000
  },
  {
    "name": "Hyderabad",
    "iso": "IND",
    "latitude": 17.3753,
    "longitude": 78.4744,
    "population": 10004000
  },
  {
    "name": "Seoul",
    "iso": "KOR",
    "latitude": 37.5683,
    "longitude": 126.9778,
    "population": 9963000
  },
  {
    "name": "Chukyo M.M.A. (Nagoya)",
    "iso": "JPN",
    "latitude": 35.1815,
    "longitude": 136.9064,
    "population": 9552000
  },
  {
    "name": "London",
    "iso": "GBR",
    "latitude": 51.5085,
    "longitude": -0.1257,
    "population": 9304000
  },
  {
    "name": "Chengdu",
    "iso": "CHN",
    "latitude": 30.6667,
    "longitude": 104.0667,
    "population": 9136000
  },
  {
    "name": "Tehran",
    "iso": "IRN",
    "latitude": 35.6944,
    "longitude": 51.4215,
    "population": 9135000
  },
  {
    "name": "Chicago",
    "iso": "USA",
    "latitude": 41.85,
    "longitude": -87.6501,
    "population": 8865000
  },
  {
    "name": "Nanjing, Jiangsu",
    "iso": "CHN",
    "latitude": 32.0482,
    "longitude": 118.7898,
    "population": 8847000
  },
  {
    "name": "Thành Pho Ho Chí Minh (Ho Chi Minh City)",
    "iso": "VNM",
    "latitude": 10.75,
    "longitude": 106.6667,
    "population": 8602000
  },
  {
    "name": "Wuhan",
    "iso": "CHN",
    "latitude": 30.5833,
    "longitude": 114.2667,
    "population": 8365000
  },
  {
    "name": "Luanda",
    "iso": "AGO",
    "latitude": -8.8368,
    "longitude": 13.2343,
    "population": 8330000
  },
  {
    "name": "Ahmadabad",
    "iso": "IND",
    "latitude": 23.0333,
    "longitude": 72.6167,
    "population": 8059000
  },
  {
    "name": "Xi'an, Shaanxi",
    "iso": "CHN",
    "latitude": 34.2894,
    "longitude": 108.9402,
    "population": 8001000
  },
  {
    "name": "Kuala Lumpur",
    "iso": "MYS",
    "latitude": 3.1412,
    "longitude": 101.6865,
    "population": 7997000
  },
  {
    "name": "Hangzhou",
    "iso": "CHN",
    "latitude": 30.2937,
    "longitude": 120.1614,
    "population": 7642000
  },
  {
    "name": "Hong Kong",
    "iso": "HKG",
    "latitude": 22.2796,
    "longitude": 114.1887,
    "population": 7548000
  },
  {
    "name": "Dongguan",
    "iso": "CHN",
    "latitude": 23.0212,
    "longitude": 113.7414,
    "population": 7408000
  },
  {
    "name": "Foshan",
    "iso": "CHN",
    "latitude": 23.0228,
    "longitude": 113.12,
    "population": 7327000
  },
  {
    "name": "Ar-Riyadh (Riyadh)",
    "iso": "SAU",
    "latitude": 24.6905,
    "longitude": 46.7096,
    "population": 7231000
  },
  {
    "name": "Shenyang",
    "iso": "CHN",
    "latitude": 41.7922,
    "longitude": 123.4328,
    "population": 7220000
  },
  {
    "name": "Surat",
    "iso": "IND",
    "latitude": 21.1667,
    "longitude": 72.8333,
    "population": 7185000
  },
  {
    "name": "Baghdad",
    "iso": "IRQ",
    "latitude": 33.3406,
    "longitude": 44.4009,
    "population": 7144000
  },
  {
    "name": "Suzhou, Jiangsu",
    "iso": "CHN",
    "latitude": 31.3021,
    "longitude": 120.5853,
    "population": 7070000
  },
  {
    "name": "Santiago",
    "iso": "CHL",
    "latitude": -33.4569,
    "longitude": -70.6483,
    "population": 6767000
  },
  {
    "name": "Dar es Salaam",
    "iso": "TZA",
    "latitude": -6.8235,
    "longitude": 39.2695,
    "population": 6702000
  },
  {
    "name": "Pune (Poona)",
    "iso": "IND",
    "latitude": 18.5161,
    "longitude": 73.8616,
    "population": 6629000
  },
  {
    "name": "Madrid",
    "iso": "ESP",
    "latitude": 40.4165,
    "longitude": -3.7026,
    "population": 6618000
  },
  {
    "name": "Haerbin",
    "iso": "CHN",
    "latitude": 45.7563,
    "longitude": 126.6467,
    "population": 6387000
  },
  {
    "name": "Houston",
    "iso": "USA",
    "latitude": 29.7602,
    "longitude": -95.3694,
    "population": 6371000
  },
  {
    "name": "Dallas-Fort Worth",
    "iso": "USA",
    "latitude": 32.7254,
    "longitude": -97.3209,
    "population": 6301000
  },
  {
    "name": "Toronto",
    "iso": "CAN",
    "latitude": 43.7001,
    "longitude": -79.4163,
    "population": 6197000
  },
  {
    "name": "Miami",
    "iso": "USA",
    "latitude": 25.7891,
    "longitude": -80.204,
    "population": 6122000
  },
  {
    "name": "Belo Horizonte",
    "iso": "BRA",
    "latitude": -19.9208,
    "longitude": -43.9378,
    "population": 6084000
  },
  {
    "name": "Singapore",
    "iso": "SGP",
    "latitude": 1.2897,
    "longitude": 103.8501,
    "population": 5935000
  },
  {
    "name": "Al-Khartum (Khartoum)",
    "iso": "SDN",
    "latitude": 15.5518,
    "longitude": 32.5324,
    "population": 5829000
  },
  {
    "name": "Atlanta",
    "iso": "USA",
    "latitude": 33.76,
    "longitude": -84.4,
    "population": 5803000
  },
  {
    "name": "Johannesburg",
    "iso": "ZAF",
    "latitude": -26.2023,
    "longitude": 28.0436,
    "population": 5783000
  },
  {
    "name": "Philadelphia",
    "iso": "USA",
    "latitude": 39.9523,
    "longitude": -75.1638,
    "population": 5717000
  },
  {
    "name": "Qingdao",
    "iso": "CHN",
    "latitude": 36.0986,
    "longitude": 120.3719,
    "population": 5620000
  },
  {
    "name": "Dalian",
    "iso": "CHN",
    "latitude": 38.9138,
    "longitude": 121.6023,
    "population": 5618000
  },
  {
    "name": "Barcelona",
    "iso": "ESP",
    "latitude": 41.3888,
    "longitude": 2.159,
    "population": 5586000
  },
  {
    "name": "Kitakyushu-Fukuoka M.M.A.",
    "iso": "JPN",
    "latitude": 33.6064,
    "longitude": 130.4181,
    "population": 5529000
  },
  {
    "name": "Sankt Peterburg (Saint Petersburg)",
    "iso": "RUS",
    "latitude": 59.9299,
    "longitude": 30.3262,
    "population": 5468000
  },
  {
    "name": "Ji'nan, Shandong",
    "iso": "CHN",
    "latitude": 36.6767,
    "longitude": 116.9971,
    "population": 5360000
  },
  {
    "name": "Yangon",
    "iso": "MMR",
    "latitude": 16.8053,
    "longitude": 96.1561,
    "population": 5332000
  },
  {
    "name": "Zhengzhou",
    "iso": "CHN",
    "latitude": 34.7578,
    "longitude": 113.6486,
    "population": 5323000
  },
  {
    "name": "Washington, D.C.",
    "iso": "USA",
    "latitude": 38.8951,
    "longitude": -77.0364,
    "population": 5322000
  },
  {
    "name": "Al-Iskandariyah (Alexandria)",
    "iso": "EGY",
    "latitude": 31.1925,
    "longitude": 29.9046,
    "population": 5281000
  },
  {
    "name": "Abidjan",
    "iso": "CIV",
    "latitude": 5.3453,
    "longitude": -4.0268,
    "population": 5203000
  },
  {
    "name": "Guadalajara",
    "iso": "MEX",
    "latitude": 20.6667,
    "longitude": -103.3333,
    "population": 5179000
  },
  {
    "name": "Ankara",
    "iso": "TUR",
    "latitude": 39.9199,
    "longitude": 32.8543,
    "population": 5118000
  },
  {
    "name": "Chittagong",
    "iso": "BGD",
    "latitude": 22.3331,
    "longitude": 91.8364,
    "population": 5020000
  },
  {
    "name": "Melbourne",
    "iso": "AUS",
    "latitude": -37.814,
    "longitude": 144.9633,
    "population": 4968000
  },
  {
    "name": "Sydney",
    "iso": "AUS",
    "latitude": -33.8679,
    "longitude": 151.2073,
    "population": 4926000
  },
  {
    "name": "Monterrey",
    "iso": "MEX",
    "latitude": 25.6667,
    "longitude": -100.3167,
    "population": 4874000
  },
  {
    "name": "Addis Ababa",
    "iso": "ETH",
    "latitude": 9.025,
    "longitude": 38.7469,
    "population": 4794000
  },
  {
    "name": "Nairobi",
    "iso": "KEN",
    "latitude": -1.2833,
    "longitude": 36.8167,
    "population": 4735000
  },
  {
    "name": "Hà Noi",
    "iso": "VNM",
    "latitude": 21.0245,
    "longitude": 105.8412,
    "population": 4678000
  },
  {
    "name": "Brasília",
    "iso": "BRA",
    "latitude": -15.7797,
    "longitude": -47.9297,
    "population": 4646000
  },
  {
    "name": "Cape Town",
    "iso": "ZAF",
    "latitude": -33.9258,
    "longitude": 18.4232,
    "population": 4618000
  },
  {
    "name": "Jiddah",
    "iso": "SAU",
    "latitude": 21.5169,
    "longitude": 39.2192,
    "population": 4610000
  },
  {
    "name": "Changsha",
    "iso": "CHN",
    "latitude": 28.2274,
    "longitude": 112.9383,
    "population": 4578000
  },
  {
    "name": "Phoenix-Mesa",
    "iso": "USA",
    "latitude": 33.4495,
    "longitude": -112.0747,
    "population": 4511000
  },
  {
    "name": "Kunming",
    "iso": "CHN",
    "latitude": 25.0389,
    "longitude": 102.7183,
    "population": 4443000
  },
  {
    "name": "Changchun",
    "iso": "CHN",
    "latitude": 43.8825,
    "longitude": 125.294,
    "population": 4426000
  },
  {
    "name": "Xinbei",
    "iso": "TWN",
    "latitude": 25.0121,
    "longitude": 121.4621,
    "population": 4398000
  },
  {
    "name": "Ürümqi (Wulumqi)",
    "iso": "CHN",
    "latitude": 43.8253,
    "longitude": 87.6038,
    "population": 4369000
  },
  {
    "name": "Shantou",
    "iso": "CHN",
    "latitude": 23.3681,
    "longitude": 116.7148,
    "population": 4327000
  },
  {
    "name": "Boston",
    "iso": "USA",
    "latitude": 42.3479,
    "longitude": -71.0645,
    "population": 4309000
  },
  {
    "name": "Roma (Rome)",
    "iso": "ITA",
    "latitude": 41.8947,
    "longitude": 12.4811,
    "population": 4257000
  },
  {
    "name": "Hefei",
    "iso": "CHN",
    "latitude": 31.8639,
    "longitude": 117.2808,
    "population": 4242000
  },
  {
    "name": "Kabul",
    "iso": "AFG",
    "latitude": 34.5289,
    "longitude": 69.1725,
    "population": 4222000
  },
  {
    "name": "Montréal",
    "iso": "CAN",
    "latitude": 45.5088,
    "longitude": -73.5878,
    "population": 4221000
  },
  {
    "name": "Tel Aviv-Yafo (Tel Aviv-Jaffa)",
    "iso": "ISR",
    "latitude": 32.0809,
    "longitude": 34.7806,
    "population": 4181000
  },
  {
    "name": "Pôrto Alegre",
    "iso": "BRA",
    "latitude": -30.0331,
    "longitude": -51.23,
    "population": 4137000
  },
  {
    "name": "Recife",
    "iso": "BRA",
    "latitude": -8.0539,
    "longitude": -34.8811,
    "population": 4127000
  },
  {
    "name": "Ningbo",
    "iso": "CHN",
    "latitude": 29.8782,
    "longitude": 121.5495,
    "population": 4116000
  },
  {
    "name": "Shijiazhuang",
    "iso": "CHN",
    "latitude": 38.0418,
    "longitude": 114.5108,
    "population": 4114000
  },
  {
    "name": "Fortaleza",
    "iso": "BRA",
    "latitude": -3.7412,
    "longitude": -38.5436,
    "population": 4073000
  },
  {
    "name": "Medellín",
    "iso": "COL",
    "latitude": 6.2518,
    "longitude": -75.5636,
    "population": 4000000
  },
  {
    "name": "Kano",
    "iso": "NGA",
    "latitude": 12.0001,
    "longitude": 8.5167,
    "population": 3999000
  },
  {
    "name": "Yaoundé",
    "iso": "CMR",
    "latitude": 3.8667,
    "longitude": 11.5167,
    "population": 3992000
  },
  {
    "name": "Jaipur",
    "iso": "IND",
    "latitude": 26.9167,
    "longitude": 75.8167,
    "population": 3909000
  },
  {
    "name": "Ekurhuleni",
    "iso": "ZAF",
    "latitude": -26.25,
    "longitude": 28.33,
    "population": 3894000
  },
  {
    "name": "Taiyuan, Shanxi",
    "iso": "CHN",
    "latitude": 37.8619,
    "longitude": 112.5516,
    "population": 3891000
  },
  {
    "name": "Nanning",
    "iso": "CHN",
    "latitude": 22.8167,
    "longitude": 108.3167,
    "population": 3860000
  },
  {
    "name": "Salvador",
    "iso": "BRA",
    "latitude": -12.9711,
    "longitude": -38.5108,
    "population": 3839000
  },
  {
    "name": "Dar-el-Beida (Casablanca)",
    "iso": "MAR",
    "latitude": 33.5928,
    "longitude": -7.6192,
    "population": 3752000
  },
  {
    "name": "Xiamen",
    "iso": "CHN",
    "latitude": 24.4798,
    "longitude": 118.0819,
    "population": 3720000
  },
  {
    "name": "Fuzhou, Fujian",
    "iso": "CHN",
    "latitude": 26.0754,
    "longitude": 119.2989,
    "population": 3686000
  },
  {
    "name": "Curitiba",
    "iso": "BRA",
    "latitude": -25.4278,
    "longitude": -49.2731,
    "population": 3679000
  },
  {
    "name": "Lucknow",
    "iso": "IND",
    "latitude": 26.85,
    "longitude": 80.9167,
    "population": 3677000
  },
  {
    "name": "Douala",
    "iso": "CMR",
    "latitude": 4.0483,
    "longitude": 9.7043,
    "population": 3663000
  },
  {
    "name": "Changzhou, Jiangsu",
    "iso": "CHN",
    "latitude": 31.7943,
    "longitude": 119.9589,
    "population": 3625000
  },
  {
    "name": "Wenzhou",
    "iso": "CHN",
    "latitude": 27.9994,
    "longitude": 120.6668,
    "population": 3624000
  },
  {
    "name": "Nanchang",
    "iso": "CHN",
    "latitude": 28.6833,
    "longitude": 115.8833,
    "population": 3598000
  },
  {
    "name": "Berlin",
    "iso": "DEU",
    "latitude": 52.5244,
    "longitude": 13.4105,
    "population": 3562000
  },
  {
    "name": "Kozhikode (Calicut)",
    "iso": "IND",
    "latitude": 11.2567,
    "longitude": 75.7787,
    "population": 3555000
  },
  {
    "name": "Ibadan",
    "iso": "NGA",
    "latitude": 7.3878,
    "longitude": 3.8964,
    "population": 3552000
  },
  {
    "name": "Detroit",
    "iso": "USA",
    "latitude": 42.3871,
    "longitude": -83.1026,
    "population": 3548000
  },
  {
    "name": "Busan",
    "iso": "KOR",
    "latitude": 35.1028,
    "longitude": 129.0403,
    "population": 3465000
  },
  {
    "name": "Faisalabad",
    "iso": "PAK",
    "latitude": 31.4167,
    "longitude": 73.0833,
    "population": 3462000
  },
  {
    "name": "Seattle",
    "iso": "USA",
    "latitude": 47.6264,
    "longitude": -122.3331,
    "population": 3433000
  },
  {
    "name": "Tangshan, Hebei",
    "iso": "CHN",
    "latitude": 39.6285,
    "longitude": 118.1799,
    "population": 3426000
  },
  {
    "name": "Bekasi",
    "iso": "IDN",
    "latitude": -6.2383,
    "longitude": 106.9756,
    "population": 3394000
  },
  {
    "name": "Malappuram",
    "iso": "IND",
    "latitude": 11.0667,
    "longitude": 76.0667,
    "population": 3391000
  },
  {
    "name": "Antananarivo",
    "iso": "MDG",
    "latitude": -18.9137,
    "longitude": 47.5361,
    "population": 3369000
  },
  {
    "name": "Kumasi",
    "iso": "GHA",
    "latitude": 6.6885,
    "longitude": -1.6244,
    "population": 3348000
  },
  {
    "name": "Asunción",
    "iso": "PRY",
    "latitude": -25.3007,
    "longitude": -57.6359,
    "population": 3337000
  },
  {
    "name": "Santo Domingo",
    "iso": "DOM",
    "latitude": 18.4896,
    "longitude": -69.9018,
    "population": 3318000
  },
  {
    "name": "Guiyang",
    "iso": "CHN",
    "latitude": 26.5833,
    "longitude": 106.7167,
    "population": 3317000
  },
  {
    "name": "San Francisco-Oakland",
    "iso": "USA",
    "latitude": 37.7599,
    "longitude": -122.4374,
    "population": 3314000
  },
  {
    "name": "Campinas",
    "iso": "BRA",
    "latitude": -22.9109,
    "longitude": -47.0656,
    "population": 3301000
  },
  {
    "name": "Kampala",
    "iso": "UGA",
    "latitude": 0.3163,
    "longitude": 32.5822,
    "population": 3298000
  },
  {
    "name": "Abuja",
    "iso": "NGA",
    "latitude": 9.0574,
    "longitude": 7.4898,
    "population": 3278000
  },
  {
    "name": "Wuxi, Jiangsu",
    "iso": "CHN",
    "latitude": 31.5367,
    "longitude": 120.2986,
    "population": 3256000
  },
  {
    "name": "San Diego",
    "iso": "USA",
    "latitude": 32.7153,
    "longitude": -117.1573,
    "population": 3251000
  },
  {
    "name": "Mashhad",
    "iso": "IRN",
    "latitude": 36.297,
    "longitude": 59.6062,
    "population": 3208000
  },
  {
    "name": "Puebla",
    "iso": "MEX",
    "latitude": 19.0415,
    "longitude": -98.205,
    "population": 3195000
  },
  {
    "name": "Durban (Ethekwini)",
    "iso": "ZAF",
    "latitude": -29.8579,
    "longitude": 31.0292,
    "population": 3158000
  },
  {
    "name": "Athínai (Athens)",
    "iso": "GRC",
    "latitude": 37.9534,
    "longitude": 23.749,
    "population": 3153000
  },
  {
    "name": "Milano (Milan)",
    "iso": "ITA",
    "latitude": 45.5531,
    "longitude": 9.1834,
    "population": 3140000
  },
  {
    "name": "Dakar",
    "iso": "SEN",
    "latitude": 14.6937,
    "longitude": -17.4441,
    "population": 3140000
  },
  {
    "name": "Kanpur",
    "iso": "IND",
    "latitude": 26.4667,
    "longitude": 80.35,
    "population": 3124000
  },
  {
    "name": "Al Kuwayt (Kuwait City)",
    "iso": "KWT",
    "latitude": 29.3697,
    "longitude": 47.9783,
    "population": 3115000
  },
  {
    "name": "P'yongyang",
    "iso": "PRK",
    "latitude": 39.0339,
    "longitude": 125.7543,
    "population": 3084000
  },
  {
    "name": "Kochi (Cochin)",
    "iso": "IND",
    "latitude": 9.9307,
    "longitude": 76.2601,
    "population": 3082000
  },
  {
    "name": "Lanzhou",
    "iso": "CHN",
    "latitude": 36.0564,
    "longitude": 103.7922,
    "population": 3081000
  },
  {
    "name": "Thrissur",
    "iso": "IND",
    "latitude": 10.5167,
    "longitude": 76.2167,
    "population": 3068000
  },
  {
    "name": "Port Harcourt",
    "iso": "NGA",
    "latitude": 4.7774,
    "longitude": 7.0134,
    "population": 3020000
  },
  {
    "name": "Indore",
    "iso": "IND",
    "latitude": 22.7179,
    "longitude": 75.8333,
    "population": 3017000
  },
  {
    "name": "Guayaquil",
    "iso": "ECU",
    "latitude": -2.1667,
    "longitude": -79.9,
    "population": 2994000
  },
  {
    "name": "Izmir",
    "iso": "TUR",
    "latitude": 38.4127,
    "longitude": 27.1384,
    "population": 2993000
  },
  {
    "name": "Kyiv (Kiev)",
    "iso": "UKR",
    "latitude": 50.4454,
    "longitude": 30.5186,
    "population": 2988000
  },
  {
    "name": "Sana'a'",
    "iso": "YEM",
    "latitude": 15.3531,
    "longitude": 44.2078,
    "population": 2973000
  },
  {
    "name": "Lisboa (Lisbon)",
    "iso": "PRT",
    "latitude": 38.7169,
    "longitude": -9.1399,
    "population": 2957000
  },
  {
    "name": "Surabaya",
    "iso": "IDN",
    "latitude": -7.2888,
    "longitude": 112.7411,
    "population": 2944000
  },
  {
    "name": "Caracas",
    "iso": "VEN",
    "latitude": 10.488,
    "longitude": -66.8792,
    "population": 2939000
  },
  {
    "name": "Ciudad de Guatemala (Guatemala City)",
    "iso": "GTM",
    "latitude": 14.6127,
    "longitude": -90.5307,
    "population": 2935000
  },
  {
    "name": "Minneapolis-St. Paul",
    "iso": "USA",
    "latitude": 44.9731,
    "longitude": -93.2699,
    "population": 2926000
  },
  {
    "name": "Shizuoka-Hamamatsu M.M.A.",
    "iso": "JPN",
    "latitude": 34.9769,
    "longitude": 138.3831,
    "population": 2922000
  },
  {
    "name": "Zhongshan",
    "iso": "CHN",
    "latitude": 22.518,
    "longitude": 113.3839,
    "population": 2914000
  },
  {
    "name": "Nagpur",
    "iso": "IND",
    "latitude": 21.15,
    "longitude": 79.1,
    "population": 2893000
  },
  {
    "name": "Dubayy (Dubai)",
    "iso": "ARE",
    "latitude": 25.2721,
    "longitude": 55.3113,
    "population": 2878000
  },
  {
    "name": "Tampa-St. Petersburg",
    "iso": "USA",
    "latitude": 27.9475,
    "longitude": -82.4584,
    "population": 2877000
  },
  {
    "name": "Denver-Aurora",
    "iso": "USA",
    "latitude": 39.7343,
    "longitude": -104.9831,
    "population": 2827000
  },
  {
    "name": "Incheon",
    "iso": "KOR",
    "latitude": 37.4536,
    "longitude": 126.7317,
    "population": 2801000
  },
  {
    "name": "Coimbatore",
    "iso": "IND",
    "latitude": 10.9925,
    "longitude": 76.9614,
    "population": 2787000
  },
  {
    "name": "Cali",
    "iso": "COL",
    "latitude": 3.4372,
    "longitude": -76.5225,
    "population": 2782000
  },
  {
    "name": "Ouagadougou",
    "iso": "BFA",
    "latitude": 12.3642,
    "longitude": -1.5383,
    "population": 2780000
  },
  {
    "name": "Port-au-Prince",
    "iso": "HTI",
    "latitude": 18.5392,
    "longitude": -72.335,
    "population": 2774000
  },
  {
    "name": "Lusaka",
    "iso": "ZMB",
    "latitude": -15.4134,
    "longitude": 28.2771,
    "population": 2774000
  },
  {
    "name": "El Djazaïr  (Algiers)",
    "iso": "DZA",
    "latitude": 36.7525,
    "longitude": 3.042,
    "population": 2768000
  },
  {
    "name": "Manchester",
    "iso": "GBR",
    "latitude": 53.481,
    "longitude": -2.2374,
    "population": 2730000
  },
  {
    "name": "Handan",
    "iso": "CHN",
    "latitude": 36.6006,
    "longitude": 114.4678,
    "population": 2727000
  },
  {
    "name": "Depok",
    "iso": "IDN",
    "latitude": -6.4025,
    "longitude": 106.7942,
    "population": 2727000
  },
  {
    "name": "Taibei",
    "iso": "TWN",
    "latitude": 25.047,
    "longitude": 121.5457,
    "population": 2721000
  },
  {
    "name": "Las Vegas",
    "iso": "USA",
    "latitude": 36.1699,
    "longitude": -115.1398,
    "population": 2699000
  },
  {
    "name": "Goiânia",
    "iso": "BRA",
    "latitude": -16.6786,
    "longitude": -49.2539,
    "population": 2690000
  },
  {
    "name": "Sapporo",
    "iso": "JPN",
    "latitude": 43.0642,
    "longitude": 141.3469,
    "population": 2670000
  },
  {
    "name": "Huai'an",
    "iso": "CHN",
    "latitude": 33.607,
    "longitude": 119.0148,
    "population": 2655000
  },
  {
    "name": "Weifang",
    "iso": "CHN",
    "latitude": 36.71,
    "longitude": 119.1019,
    "population": 2654000
  },
  {
    "name": "Zibo",
    "iso": "CHN",
    "latitude": 36.7906,
    "longitude": 118.0633,
    "population": 2640000
  },
  {
    "name": "Bamako",
    "iso": "MLI",
    "latitude": 12.65,
    "longitude": -8,
    "population": 2618000
  },
  {
    "name": "Birmingham (West Midlands)",
    "iso": "GBR",
    "latitude": 52.4814,
    "longitude": -1.8998,
    "population": 2607000
  },
  {
    "name": "Thiruvananthapuram",
    "iso": "IND",
    "latitude": 8.5069,
    "longitude": 76.9569,
    "population": 2585000
  },
  {
    "name": "Vancouver",
    "iso": "CAN",
    "latitude": 49.2497,
    "longitude": -123.1193,
    "population": 2581000
  },
  {
    "name": "Bandung",
    "iso": "IDN",
    "latitude": -6.9194,
    "longitude": 107.6085,
    "population": 2580000
  },
  {
    "name": "Pretoria",
    "iso": "ZAF",
    "latitude": -25.7449,
    "longitude": 28.1878,
    "population": 2566000
  },
  {
    "name": "Shaoxing",
    "iso": "CHN",
    "latitude": 30.011,
    "longitude": 120.5715,
    "population": 2540000
  },
  {
    "name": "Yantai",
    "iso": "CHN",
    "latitude": 37.4651,
    "longitude": 121.4372,
    "population": 2527000
  },
  {
    "name": "Huizhou",
    "iso": "CHN",
    "latitude": 23.0833,
    "longitude": 114.4,
    "population": 2525000
  },
  {
    "name": "Mbuji-Mayi",
    "iso": "COD",
    "latitude": -6.15,
    "longitude": 23.6,
    "population": 2525000
  },
  {
    "name": "Tashkent",
    "iso": "UZB",
    "latitude": 41.2647,
    "longitude": 69.2163,
    "population": 2517000
  },
  {
    "name": "Accra",
    "iso": "GHA",
    "latitude": 5.556,
    "longitude": -0.1969,
    "population": 2514000
  },
  {
    "name": "Lubumbashi",
    "iso": "COD",
    "latitude": -11.6609,
    "longitude": 27.4794,
    "population": 2478000
  },
  {
    "name": "Riverside-San Bernardino",
    "iso": "USA",
    "latitude": 33.9534,
    "longitude": -117.3962,
    "population": 2469000
  },
  {
    "name": "Toluca de Lerdo",
    "iso": "MEX",
    "latitude": 19.2839,
    "longitude": -99.6573,
    "population": 2467000
  },
  {
    "name": "San Juan",
    "iso": "PRI",
    "latitude": 18.4663,
    "longitude": -66.1057,
    "population": 2448000
  },
  {
    "name": "Patna",
    "iso": "IND",
    "latitude": 25.6,
    "longitude": 85.1167,
    "population": 2436000
  },
  {
    "name": "Bayrut (Beirut)",
    "iso": "LBN",
    "latitude": 33.9,
    "longitude": 35.4833,
    "population": 2424000
  },
  {
    "name": "Brisbane",
    "iso": "AUS",
    "latitude": -27.4679,
    "longitude": 153.0281,
    "population": 2406000
  },
  {
    "name": "Dimashq (Damascus)",
    "iso": "SYR",
    "latitude": 33.5086,
    "longitude": 36.3084,
    "population": 2392000
  },
  {
    "name": "Bhopal",
    "iso": "IND",
    "latitude": 23.2667,
    "longitude": 77.4,
    "population": 2390000
  },
  {
    "name": "Brazzaville",
    "iso": "COG",
    "latitude": -4.2658,
    "longitude": 15.2832,
    "population": 2388000
  },
  {
    "name": "Luoyang",
    "iso": "CHN",
    "latitude": 34.6186,
    "longitude": 112.4562,
    "population": 2387000
  },
  {
    "name": "Tunis",
    "iso": "TUN",
    "latitude": 36.819,
    "longitude": 10.1658,
    "population": 2365000
  },
  {
    "name": "Baku",
    "iso": "AZE",
    "latitude": 40.3777,
    "longitude": 49.892,
    "population": 2341000
  },
  {
    "name": "Tangerang",
    "iso": "IDN",
    "latitude": -6.2024,
    "longitude": 106.6527,
    "population": 2339000
  },
  {
    "name": "Medan",
    "iso": "IDN",
    "latitude": 3.5833,
    "longitude": 98.6667,
    "population": 2338000
  },
  {
    "name": "Belém",
    "iso": "BRA",
    "latitude": -1.4561,
    "longitude": -48.479,
    "population": 2334000
  },
  {
    "name": "Sendai",
    "iso": "JPN",
    "latitude": 38.256,
    "longitude": 140.8976,
    "population": 2327000
  },
  {
    "name": "Baltimore",
    "iso": "USA",
    "latitude": 39.2904,
    "longitude": -76.6122,
    "population": 2325000
  },
  {
    "name": "San Antonio",
    "iso": "USA",
    "latitude": 29.4241,
    "longitude": -98.4935,
    "population": 2320000
  },
  {
    "name": "Muqdisho (Mogadishu)",
    "iso": "SOM",
    "latitude": 2.0416,
    "longitude": 45.3435,
    "population": 2282000
  },
  {
    "name": "Nantong",
    "iso": "CHN",
    "latitude": 31.9904,
    "longitude": 120.8655,
    "population": 2276000
  },
  {
    "name": "Barranquilla",
    "iso": "COL",
    "latitude": 10.9639,
    "longitude": -74.7964,
    "population": 2273000
  },
  {
    "name": "Manaus",
    "iso": "BRA",
    "latitude": -3.1019,
    "longitude": -60.025,
    "population": 2261000
  },
  {
    "name": "Maracaibo",
    "iso": "VEN",
    "latitude": 10.6317,
    "longitude": -71.6406,
    "population": 2258000
  },
  {
    "name": "Taoyuan",
    "iso": "TWN",
    "latitude": 24.9936,
    "longitude": 121.2969,
    "population": 2245000
  },
  {
    "name": "Rawalpindi",
    "iso": "PAK",
    "latitude": 33.6,
    "longitude": 73.0667,
    "population": 2237000
  },
  {
    "name": "Gujranwala",
    "iso": "PAK",
    "latitude": 32.15,
    "longitude": 74.1833,
    "population": 2229000
  },
  {
    "name": "St. Louis",
    "iso": "USA",
    "latitude": 38.6286,
    "longitude": -90.1972,
    "population": 2213000
  },
  {
    "name": "Agra",
    "iso": "IND",
    "latitude": 27.1833,
    "longitude": 78.0167,
    "population": 2210000
  },
  {
    "name": "Peshawar",
    "iso": "PAK",
    "latitude": 34.002,
    "longitude": 71.5594,
    "population": 2203000
  },
  {
    "name": "Daegu",
    "iso": "KOR",
    "latitude": 35.8703,
    "longitude": 128.5911,
    "population": 2199000
  },
  {
    "name": "Baotou",
    "iso": "CHN",
    "latitude": 40.6522,
    "longitude": 109.8222,
    "population": 2190000
  },
  {
    "name": "Vadodara",
    "iso": "IND",
    "latitude": 22.3,
    "longitude": 73.2,
    "population": 2190000
  },
  {
    "name": "Napoli (Naples)",
    "iso": "ITA",
    "latitude": 40.8502,
    "longitude": 14.2592,
    "population": 2187000
  },
  {
    "name": "Visakhapatnam",
    "iso": "IND",
    "latitude": 17.6819,
    "longitude": 83.2097,
    "population": 2175000
  },
  {
    "name": "Kannur",
    "iso": "IND",
    "latitude": 11.8729,
    "longitude": 75.3716,
    "population": 2167000
  },
  {
    "name": "Liuzhou",
    "iso": "CHN",
    "latitude": 24.3017,
    "longitude": 109.3784,
    "population": 2165000
  },
  {
    "name": "Hohhot",
    "iso": "CHN",
    "latitude": 40.8106,
    "longitude": 111.6522,
    "population": 2163000
  },
  {
    "name": "Portland",
    "iso": "USA",
    "latitude": 45.5215,
    "longitude": -122.6799,
    "population": 2151000
  },
  {
    "name": "Amman",
    "iso": "JOR",
    "latitude": 31.9552,
    "longitude": 35.945,
    "population": 2148000
  },
  {
    "name": "Xuzhou",
    "iso": "CHN",
    "latitude": 34.2637,
    "longitude": 117.1866,
    "population": 2146000
  },
  {
    "name": "La Habana (Havana)",
    "iso": "CUB",
    "latitude": 23.1195,
    "longitude": -82.3785,
    "population": 2140000
  },
  {
    "name": "Tijuana",
    "iso": "MEX",
    "latitude": 32.5333,
    "longitude": -117.0167,
    "population": 2140000
  },
  {
    "name": "Esfahan",
    "iso": "IRN",
    "latitude": 32.6572,
    "longitude": 51.6776,
    "population": 2132000
  },
  {
    "name": "Sacramento",
    "iso": "USA",
    "latitude": 38.5816,
    "longitude": -121.4944,
    "population": 2123000
  },
  {
    "name": "Hiroshima",
    "iso": "JPN",
    "latitude": 34.3928,
    "longitude": 132.4605,
    "population": 2083000
  },
  {
    "name": "Bruxelles-Brussel",
    "iso": "BEL",
    "latitude": 50.8467,
    "longitude": 4.3499,
    "population": 2081000
  },
  {
    "name": "Phnum Pénh (Phnom Penh)",
    "iso": "KHM",
    "latitude": 11.5625,
    "longitude": 104.916,
    "population": 2078000
  },
  {
    "name": "Grande Vitória",
    "iso": "BRA",
    "latitude": -20.3054,
    "longitude": -40.3079,
    "population": 2076000
  },
  {
    "name": "Nashik",
    "iso": "IND",
    "latitude": 19.9833,
    "longitude": 73.8,
    "population": 2066000
  },
  {
    "name": "Charlotte",
    "iso": "USA",
    "latitude": 35.2271,
    "longitude": -80.8431,
    "population": 2054000
  },
  {
    "name": "Austin",
    "iso": "USA",
    "latitude": 30.27,
    "longitude": -97.74,
    "population": 2053000
  },
  {
    "name": "Perth",
    "iso": "AUS",
    "latitude": -31.9478,
    "longitude": 115.8525,
    "population": 2042000
  },
  {
    "name": "Makkah (Mecca)",
    "iso": "SAU",
    "latitude": 21.4174,
    "longitude": 39.8159,
    "population": 2042000
  },
  {
    "name": "Vijayawada",
    "iso": "IND",
    "latitude": 16.5167,
    "longitude": 80.6167,
    "population": 2040000
  },
  {
    "name": "Minsk",
    "iso": "BLR",
    "latitude": 53.9,
    "longitude": 27.5667,
    "population": 2028000
  },
  {
    "name": "Multan",
    "iso": "PAK",
    "latitude": 30.1833,
    "longitude": 71.4833,
    "population": 2015000
  },
  {
    "name": "Yangzhou",
    "iso": "CHN",
    "latitude": 32.3915,
    "longitude": 119.4238,
    "population": 1993000
  },
  {
    "name": "Bursa",
    "iso": "TUR",
    "latitude": 40.1917,
    "longitude": 29.0611,
    "population": 1986000
  },
  {
    "name": "Baoding",
    "iso": "CHN",
    "latitude": 38.8511,
    "longitude": 115.4903,
    "population": 1976000
  },
  {
    "name": "Orlando",
    "iso": "USA",
    "latitude": 28.5383,
    "longitude": -81.3792,
    "population": 1964000
  },
  {
    "name": "Conakry",
    "iso": "GIN",
    "latitude": 9.5716,
    "longitude": -13.6476,
    "population": 1938000
  },
  {
    "name": "Linyi, Shandong",
    "iso": "CHN",
    "latitude": 35.0541,
    "longitude": 118.3334,
    "population": 1937000
  },
  {
    "name": "Taizhou, Zhejiang",
    "iso": "CHN",
    "latitude": 28.6372,
    "longitude": 121.4185,
    "population": 1935000
  },
  {
    "name": "Wien (Vienna)",
    "iso": "AUT",
    "latitude": 48.2064,
    "longitude": 16.3707,
    "population": 1930000
  },
  {
    "name": "Halab (Aleppo)",
    "iso": "SYR",
    "latitude": 36.2136,
    "longitude": 37.1571,
    "population": 1917000
  },
  {
    "name": "Valencia",
    "iso": "VEN",
    "latitude": 10.162,
    "longitude": -68.0077,
    "population": 1910000
  },
  {
    "name": "Putian",
    "iso": "CHN",
    "latitude": 25.4394,
    "longitude": 119.0103,
    "population": 1907000
  },
  {
    "name": "Almaty",
    "iso": "KAZ",
    "latitude": 43.2472,
    "longitude": 76.9101,
    "population": 1896000
  },
  {
    "name": "Baixada Santista",
    "iso": "BRA",
    "latitude": -23.957,
    "longitude": -46.3266,
    "population": 1892000
  },
  {
    "name": "Haikou",
    "iso": "CHN",
    "latitude": 20.0274,
    "longitude": 110.3301,
    "population": 1889000
  },
  {
    "name": "West Yorkshire",
    "iso": "GBR",
    "latitude": 53.7984,
    "longitude": -1.7649,
    "population": 1889000
  },
  {
    "name": "Rabat",
    "iso": "MAR",
    "latitude": 34.0133,
    "longitude": -6.8326,
    "population": 1885000
  },
  {
    "name": "Rajkot",
    "iso": "IND",
    "latitude": 22.3,
    "longitude": 70.7833,
    "population": 1878000
  },
  {
    "name": "Quito",
    "iso": "ECU",
    "latitude": -0.2299,
    "longitude": -78.525,
    "population": 1874000
  },
  {
    "name": "Wuhu, Anhui",
    "iso": "CHN",
    "latitude": 31.3336,
    "longitude": 118.3812,
    "population": 1870000
  },
  {
    "name": "Semarang",
    "iso": "IDN",
    "latitude": -6.9932,
    "longitude": 110.4203,
    "population": 1866000
  },
  {
    "name": "Yancheng, Jiangsu",
    "iso": "CHN",
    "latitude": 33.3569,
    "longitude": 120.1551,
    "population": 1864000
  },
  {
    "name": "Ciudad de Panamá (Panama City)",
    "iso": "PAN",
    "latitude": 8.9958,
    "longitude": -79.5196,
    "population": 1860000
  },
  {
    "name": "Daqing",
    "iso": "CHN",
    "latitude": 46.5833,
    "longitude": 125,
    "population": 1859000
  },
  {
    "name": "La Paz",
    "iso": "BOL",
    "latitude": -16.5,
    "longitude": -68.15,
    "population": 1858000
  },
  {
    "name": "Ludhiana",
    "iso": "IND",
    "latitude": 30.9,
    "longitude": 75.85,
    "population": 1857000
  },
  {
    "name": "Kollam",
    "iso": "IND",
    "latitude": 8.8806,
    "longitude": 76.5917,
    "population": 1852000
  },
  {
    "name": "Hyderabad",
    "iso": "PAK",
    "latitude": 25.3667,
    "longitude": 68.3667,
    "population": 1850000
  },
  {
    "name": "Lomé",
    "iso": "TGO",
    "latitude": 6.1375,
    "longitude": 1.2123,
    "population": 1828000
  },
  {
    "name": "León de los Aldamas",
    "iso": "MEX",
    "latitude": 21.1234,
    "longitude": -101.6805,
    "population": 1825000
  },
  {
    "name": "Davao City",
    "iso": "PHL",
    "latitude": 7.0739,
    "longitude": 125.6125,
    "population": 1825000
  },
  {
    "name": "Lianyungang",
    "iso": "CHN",
    "latitude": 34.5969,
    "longitude": 119.1758,
    "population": 1820000
  },
  {
    "name": "Indianapolis",
    "iso": "USA",
    "latitude": 39.7909,
    "longitude": -86.1477,
    "population": 1807000
  },
  {
    "name": "Bucuresti (Bucharest)",
    "iso": "ROU",
    "latitude": 44.4328,
    "longitude": 26.1043,
    "population": 1803000
  },
  {
    "name": "Torino (Turin)",
    "iso": "ITA",
    "latitude": 45.0687,
    "longitude": 7.6772,
    "population": 1792000
  },
  {
    "name": "San Jose",
    "iso": "USA",
    "latitude": 37.3394,
    "longitude": -121.895,
    "population": 1791000
  },
  {
    "name": "Hamburg",
    "iso": "DEU",
    "latitude": 53.55,
    "longitude": 10,
    "population": 1790000
  },
  {
    "name": "Warszawa (Warsaw)",
    "iso": "POL",
    "latitude": 52.2298,
    "longitude": 21.0118,
    "population": 1783000
  },
  {
    "name": "Adana",
    "iso": "TUR",
    "latitude": 37.0017,
    "longitude": 35.3289,
    "population": 1771000
  },
  {
    "name": "Budapest",
    "iso": "HUN",
    "latitude": 47.498,
    "longitude": 19.0399,
    "population": 1768000
  },
  {
    "name": "Cleveland",
    "iso": "USA",
    "latitude": 41.4986,
    "longitude": -81.6874,
    "population": 1763000
  },
  {
    "name": "Zhuhai",
    "iso": "CHN",
    "latitude": 22.2769,
    "longitude": 113.5678,
    "population": 1759000
  },
  {
    "name": "Montevideo",
    "iso": "URY",
    "latitude": -34.8335,
    "longitude": -56.1674,
    "population": 1752000
  },
  {
    "name": "Cincinnati",
    "iso": "USA",
    "latitude": 39.1047,
    "longitude": -84.5188,
    "population": 1746000
  },
  {
    "name": "Datong",
    "iso": "CHN",
    "latitude": 40.0805,
    "longitude": 113.293,
    "population": 1745000
  },
  {
    "name": "Madurai",
    "iso": "IND",
    "latitude": 9.9333,
    "longitude": 78.1167,
    "population": 1734000
  },
  {
    "name": "Benin City",
    "iso": "NGA",
    "latitude": 6.335,
    "longitude": 5.6275,
    "population": 1727000
  },
  {
    "name": "Palembang",
    "iso": "IDN",
    "latitude": -2.9167,
    "longitude": 104.7458,
    "population": 1723000
  },
  {
    "name": "Lyon",
    "iso": "FRA",
    "latitude": 45.7485,
    "longitude": 4.8467,
    "population": 1719000
  },
  {
    "name": "Santa Cruz",
    "iso": "BOL",
    "latitude": -17.7989,
    "longitude": -63.1698,
    "population": 1713000
  },
  {
    "name": "Matola",
    "iso": "MOZ",
    "latitude": -25.9622,
    "longitude": 32.4589,
    "population": 1706000
  },
  {
    "name": "Gaziantep",
    "iso": "TUR",
    "latitude": 37.0594,
    "longitude": 37.3825,
    "population": 1704000
  },
  {
    "name": "Pittsburgh",
    "iso": "USA",
    "latitude": 40.4418,
    "longitude": -79.9882,
    "population": 1704000
  },
  {
    "name": "Meerut",
    "iso": "IND",
    "latitude": 28.9716,
    "longitude": 77.7193,
    "population": 1696000
  },
  {
    "name": "Quanzhou",
    "iso": "CHN",
    "latitude": 24.8968,
    "longitude": 118.5997,
    "population": 1694000
  },
  {
    "name": "Jiangmen",
    "iso": "CHN",
    "latitude": 22.5833,
    "longitude": 113.0833,
    "population": 1687000
  },
  {
    "name": "Kansas City",
    "iso": "USA",
    "latitude": 39.1142,
    "longitude": -94.6275,
    "population": 1686000
  },
  {
    "name": "Ash-Shariqah (Sharjah)",
    "iso": "ARE",
    "latitude": 25.3573,
    "longitude": 55.4033,
    "population": 1685000
  },
  {
    "name": "Glasgow",
    "iso": "GBR",
    "latitude": 55.8652,
    "longitude": -4.2576,
    "population": 1673000
  },
  {
    "name": "Varanasi (Benares)",
    "iso": "IND",
    "latitude": 25.3164,
    "longitude": 82.9822,
    "population": 1665000
  },
  {
    "name": "Novosibirsk",
    "iso": "RUS",
    "latitude": 55.0415,
    "longitude": 82.9346,
    "population": 1664000
  },
  {
    "name": "Xiangyang",
    "iso": "CHN",
    "latitude": 32.0088,
    "longitude": 112.144,
    "population": 1658000
  },
  {
    "name": "Shiraz",
    "iso": "IRN",
    "latitude": 29.6036,
    "longitude": 52.5388,
    "population": 1651000
  },
  {
    "name": "Columbus, Ohio",
    "iso": "USA",
    "latitude": 39.9622,
    "longitude": -83.0002,
    "population": 1644000
  },
  {
    "name": "Raipur",
    "iso": "IND",
    "latitude": 21.2333,
    "longitude": 81.6333,
    "population": 1642000
  },
  {
    "name": "Stockholm",
    "iso": "SWE",
    "latitude": 59.3326,
    "longitude": 18.0649,
    "population": 1633000
  },
  {
    "name": "Al-Mawsil (Mosul)",
    "iso": "IRQ",
    "latitude": 36.335,
    "longitude": 43.1189,
    "population": 1630000
  },
  {
    "name": "Anshan",
    "iso": "CHN",
    "latitude": 41.1236,
    "longitude": 122.99,
    "population": 1629000
  },
  {
    "name": "Can Tho",
    "iso": "VNM",
    "latitude": 10.0333,
    "longitude": 105.7833,
    "population": 1618000
  },
  {
    "name": "La Laguna",
    "iso": "MEX",
    "latitude": 25.55,
    "longitude": -103.4333,
    "population": 1615000
  },
  {
    "name": "Tabriz",
    "iso": "IRN",
    "latitude": 38.08,
    "longitude": 46.2919,
    "population": 1611000
  },
  {
    "name": "Cixi",
    "iso": "CHN",
    "latitude": 30.1761,
    "longitude": 121.2524,
    "population": 1609000
  },
  {
    "name": "Marseille-Aix-en-Provence",
    "iso": "FRA",
    "latitude": 43.5284,
    "longitude": 5.4433,
    "population": 1608000
  },
  {
    "name": "Auckland",
    "iso": "NZL",
    "latitude": -36.8667,
    "longitude": 174.7667,
    "population": 1607000
  },
  {
    "name": "Jilin",
    "iso": "CHN",
    "latitude": 43.8508,
    "longitude": 126.5603,
    "population": 1603000
  },
  {
    "name": "Jamshedpur",
    "iso": "IND",
    "latitude": 22.8,
    "longitude": 86.1833,
    "population": 1599000
  },
  {
    "name": "Srinagar",
    "iso": "IND",
    "latitude": 34.0837,
    "longitude": 74.7974,
    "population": 1586000
  },
  {
    "name": "Makassar (Ujung Pandang)",
    "iso": "IDN",
    "latitude": -5.1444,
    "longitude": 119.4236,
    "population": 1584000
  },
  {
    "name": "Ulaanbaatar",
    "iso": "MNG",
    "latitude": 47.9077,
    "longitude": 106.8832,
    "population": 1584000
  },
  {
    "name": "Karaj",
    "iso": "IRN",
    "latitude": 35.8355,
    "longitude": 51.0103,
    "population": 1580000
  },
  {
    "name": "Yinchuan",
    "iso": "CHN",
    "latitude": 38.4681,
    "longitude": 106.2731,
    "population": 1579000
  },
  {
    "name": "Córdoba",
    "iso": "ARG",
    "latitude": -31.4135,
    "longitude": -64.1811,
    "population": 1572000
  },
  {
    "name": "Daejon",
    "iso": "KOR",
    "latitude": 36.3214,
    "longitude": 127.4197,
    "population": 1566000
  },
  {
    "name": "Qiqihaer",
    "iso": "CHN",
    "latitude": 47.3408,
    "longitude": 123.9672,
    "population": 1560000
  },
  {
    "name": "Aurangabad",
    "iso": "IND",
    "latitude": 19.8766,
    "longitude": 75.3433,
    "population": 1558000
  },
  {
    "name": "Masqat (Muscat)",
    "iso": "OMN",
    "latitude": 23.6139,
    "longitude": 58.5922,
    "population": 1550000
  },
  {
    "name": "Yichang",
    "iso": "CHN",
    "latitude": 30.7144,
    "longitude": 111.2847,
    "population": 1548000
  },
  {
    "name": "Calgary",
    "iso": "CAN",
    "latitude": 51.0441,
    "longitude": -114.0593,
    "population": 1547000
  },
  {
    "name": "Batam",
    "iso": "IDN",
    "latitude": 1.1191,
    "longitude": 104.0313,
    "population": 1546000
  },
  {
    "name": "Xining",
    "iso": "CHN",
    "latitude": 36.6167,
    "longitude": 101.7667,
    "population": 1539000
  },
  {
    "name": "Gaoxiong",
    "iso": "TWN",
    "latitude": 22.626,
    "longitude": 120.3155,
    "population": 1538000
  },
  {
    "name": "München (Munich)",
    "iso": "DEU",
    "latitude": 48.1371,
    "longitude": 11.5734,
    "population": 1538000
  },
  {
    "name": "Qinhuangdao",
    "iso": "CHN",
    "latitude": 39.9317,
    "longitude": 119.5883,
    "population": 1535000
  },
  {
    "name": "Rosario",
    "iso": "ARG",
    "latitude": -32.9468,
    "longitude": -60.6393,
    "population": 1532000
  },
  {
    "name": "Harare",
    "iso": "ZWE",
    "latitude": -17.8294,
    "longitude": 31.0539,
    "population": 1530000
  },
  {
    "name": "Hengyang",
    "iso": "CHN",
    "latitude": 26.8841,
    "longitude": 112.6251,
    "population": 1527000
  },
  {
    "name": "Gwangju",
    "iso": "KOR",
    "latitude": 35.1461,
    "longitude": 126.9186,
    "population": 1522000
  },
  {
    "name": "Ciudad Juárez",
    "iso": "MEX",
    "latitude": 31.7333,
    "longitude": -106.4833,
    "population": 1519000
  },
  {
    "name": "Monrovia",
    "iso": "LBR",
    "latitude": 6.3005,
    "longitude": -10.7969,
    "population": 1517000
  },
  {
    "name": "Yekaterinburg",
    "iso": "RUS",
    "latitude": 56.8575,
    "longitude": 60.6125,
    "population": 1504000
  },
  {
    "name": "Tiruppur",
    "iso": "IND",
    "latitude": 11.1154,
    "longitude": 77.3546,
    "population": 1496000
  },
  {
    "name": "Jining, Shandong",
    "iso": "CHN",
    "latitude": 35.4146,
    "longitude": 116.5847,
    "population": 1494000
  },
  {
    "name": "Al-Madinah (Medina)",
    "iso": "SAU",
    "latitude": 24.4635,
    "longitude": 39.6111,
    "population": 1489000
  },
  {
    "name": "Grande São Luís",
    "iso": "BRA",
    "latitude": -2.5385,
    "longitude": -44.2832,
    "population": 1486000
  },
  {
    "name": "Abu Zaby (Abu Dhabi)",
    "iso": "ARE",
    "latitude": 24.4648,
    "longitude": 54.3618,
    "population": 1483000
  },
  {
    "name": "Virginia Beach",
    "iso": "USA",
    "latitude": 36.8345,
    "longitude": -76.0872,
    "population": 1477000
  },
  {
    "name": "Jodhpur",
    "iso": "IND",
    "latitude": 26.2392,
    "longitude": 73.0158,
    "population": 1472000
  },
  {
    "name": "Edmonton",
    "iso": "CAN",
    "latitude": 53.5434,
    "longitude": -113.5037,
    "population": 1461000
  },
  {
    "name": "Anyang",
    "iso": "CHN",
    "latitude": 36.0944,
    "longitude": 114.3503,
    "population": 1460000
  },
  {
    "name": "Kananga",
    "iso": "COD",
    "latitude": -5.8962,
    "longitude": 22.4166,
    "population": 1458000
  },
  {
    "name": "Natal",
    "iso": "BRA",
    "latitude": -5.795,
    "longitude": -35.2094,
    "population": 1457000
  },
  {
    "name": "Jabalpur",
    "iso": "IND",
    "latitude": 23.167,
    "longitude": 79.9501,
    "population": 1450000
  },
  {
    "name": "Tegucigalpa",
    "iso": "HND",
    "latitude": 14.0818,
    "longitude": -87.2068,
    "population": 1444000
  },
  {
    "name": "Raleigh",
    "iso": "USA",
    "latitude": 35.7789,
    "longitude": -78.6375,
    "population": 1444000
  },
  {
    "name": "Suqian",
    "iso": "CHN",
    "latitude": 33.9681,
    "longitude": 118.2924,
    "population": 1440000
  },
  {
    "name": "Ranchi",
    "iso": "IND",
    "latitude": 23.35,
    "longitude": 85.3333,
    "population": 1439000
  },
  {
    "name": "Milwaukee",
    "iso": "USA",
    "latitude": 43.0389,
    "longitude": -87.9065,
    "population": 1439000
  },
  {
    "name": "Huainan",
    "iso": "CHN",
    "latitude": 32.6264,
    "longitude": 116.9969,
    "population": 1438000
  },
  {
    "name": "Mandalay",
    "iso": "MMR",
    "latitude": 21.9747,
    "longitude": 96.0836,
    "population": 1438000
  },
  {
    "name": "Zhangjiakou",
    "iso": "CHN",
    "latitude": 40.81,
    "longitude": 114.8794,
    "population": 1435000
  },
  {
    "name": "Asansol",
    "iso": "IND",
    "latitude": 23.6833,
    "longitude": 86.9833,
    "population": 1431000
  },
  {
    "name": "Kharkiv",
    "iso": "UKR",
    "latitude": 49.9808,
    "longitude": 36.2527,
    "population": 1429000
  },
  {
    "name": "Chaozhou",
    "iso": "CHN",
    "latitude": 23.6651,
    "longitude": 116.6379,
    "population": 1428000
  },
  {
    "name": "Kathmandu",
    "iso": "NPL",
    "latitude": 27.7017,
    "longitude": 85.3206,
    "population": 1424000
  },
  {
    "name": "N'Djaména",
    "iso": "TCD",
    "latitude": 12.1067,
    "longitude": 15.0444,
    "population": 1423000
  },
  {
    "name": "Onitsha",
    "iso": "NGA",
    "latitude": 6.1454,
    "longitude": 6.7885,
    "population": 1415000
  },
  {
    "name": "San José",
    "iso": "CRI",
    "latitude": 9.9278,
    "longitude": -84.0807,
    "population": 1400000
  },
  {
    "name": "Chon Buri",
    "iso": "THA",
    "latitude": 13.3611,
    "longitude": 100.9883,
    "population": 1399000
  },
  {
    "name": "Beograd (Belgrade)",
    "iso": "SRB",
    "latitude": 44.8176,
    "longitude": 20.4633,
    "population": 1398000
  },
  {
    "name": "Zürich (Zurich)",
    "iso": "CHE",
    "latitude": 47.3579,
    "longitude": 8.503,
    "population": 1395000
  },
  {
    "name": "Allahabad",
    "iso": "IND",
    "latitude": 25.45,
    "longitude": 81.85,
    "population": 1394000
  },
  {
    "name": "Ottawa-Gatineau",
    "iso": "CAN",
    "latitude": 45.4166,
    "longitude": -75.698,
    "population": 1393000
  },
  {
    "name": "Kota",
    "iso": "IND",
    "latitude": 25.1665,
    "longitude": 75.8561,
    "population": 1387000
  },
  {
    "name": "João Pessoa",
    "iso": "BRA",
    "latitude": -7.115,
    "longitude": -34.8631,
    "population": 1378000
  },
  {
    "name": "Gwalior",
    "iso": "IND",
    "latitude": 26.2236,
    "longitude": 78.1792,
    "population": 1378000
  },
  {
    "name": "Amritsar",
    "iso": "IND",
    "latitude": 31.631,
    "longitude": 74.8755,
    "population": 1377000
  },
  {
    "name": "Al-Basrah (Basra)",
    "iso": "IRQ",
    "latitude": 30.4972,
    "longitude": 47.8149,
    "population": 1352000
  },
  {
    "name": "Taizhou, Jiangsu",
    "iso": "CHN",
    "latitude": 32.4945,
    "longitude": 119.9029,
    "population": 1348000
  },
  {
    "name": "København (Copenhagen)",
    "iso": "DNK",
    "latitude": 55.6759,
    "longitude": 12.5655,
    "population": 1346000
  },
  {
    "name": "Taian, Shandong",
    "iso": "CHN",
    "latitude": 36.1904,
    "longitude": 117.1191,
    "population": 1339000
  },
  {
    "name": "Querétaro",
    "iso": "MEX",
    "latitude": 20.6,
    "longitude": -100.3833,
    "population": 1339000
  },
  {
    "name": "Adelaide",
    "iso": "AUS",
    "latitude": -34.9287,
    "longitude": 138.5986,
    "population": 1336000
  },
  {
    "name": "Hims (Homs)",
    "iso": "SYR",
    "latitude": 34.7318,
    "longitude": 36.7181,
    "population": 1336000
  },
  {
    "name": "Yiwu",
    "iso": "CHN",
    "latitude": 29.3151,
    "longitude": 120.0768,
    "population": 1334000
  },
  {
    "name": "Bucaramanga",
    "iso": "COL",
    "latitude": 7.1254,
    "longitude": -73.1198,
    "population": 1331000
  },
  {
    "name": "Dhanbad",
    "iso": "IND",
    "latitude": 23.8,
    "longitude": 86.45,
    "population": 1331000
  },
  {
    "name": "Konya",
    "iso": "TUR",
    "latitude": 37.8714,
    "longitude": 32.4846,
    "population": 1328000
  },
  {
    "name": "Maceió",
    "iso": "BRA",
    "latitude": -9.6658,
    "longitude": -35.7353,
    "population": 1323000
  },
  {
    "name": "Taizhong",
    "iso": "TWN",
    "latitude": 24.1416,
    "longitude": 120.6727,
    "population": 1321000
  },
  {
    "name": "Nouakchott",
    "iso": "MRT",
    "latitude": 18.0858,
    "longitude": -15.9785,
    "population": 1315000
  },
  {
    "name": "Porto",
    "iso": "PRT",
    "latitude": 41.1496,
    "longitude": -8.611,
    "population": 1313000
  },
  {
    "name": "Suweon",
    "iso": "KOR",
    "latitude": 37.2635,
    "longitude": 127.0214,
    "population": 1311000
  },
  {
    "name": "Samut Prakan",
    "iso": "THA",
    "latitude": 13.5993,
    "longitude": 100.5968,
    "population": 1307000
  },
  {
    "name": "Praha (Prague)",
    "iso": "CZE",
    "latitude": 50.088,
    "longitude": 14.4208,
    "population": 1306000
  },
  {
    "name": "Helsinki",
    "iso": "FIN",
    "latitude": 60.1692,
    "longitude": 24.9402,
    "population": 1305000
  },
  {
    "name": "Cochabamba",
    "iso": "BOL",
    "latitude": -17.3895,
    "longitude": -66.1568,
    "population": 1304000
  },
  {
    "name": "Weihai",
    "iso": "CHN",
    "latitude": 37.5017,
    "longitude": 122.1136,
    "population": 1304000
  },
  {
    "name": "Joinville",
    "iso": "BRA",
    "latitude": -26.3044,
    "longitude": -48.8456,
    "population": 1303000
  },
  {
    "name": "Hai Phòng",
    "iso": "VNM",
    "latitude": 20.8648,
    "longitude": 106.6835,
    "population": 1300000
  },
  {
    "name": "Mombasa",
    "iso": "KEN",
    "latitude": -4.0547,
    "longitude": 39.6636,
    "population": 1296000
  },
  {
    "name": "Niamey",
    "iso": "NER",
    "latitude": 13.5137,
    "longitude": 2.1098,
    "population": 1292000
  },
  {
    "name": "Qom",
    "iso": "IRN",
    "latitude": 34.6401,
    "longitude": 50.8764,
    "population": 1288000
  },
  {
    "name": "Zhanjiang",
    "iso": "CHN",
    "latitude": 21.2662,
    "longitude": 110.3596,
    "population": 1287000
  },
  {
    "name": "Fushun, Liaoning",
    "iso": "CHN",
    "latitude": 41.8807,
    "longitude": 123.9467,
    "population": 1285000
  },
  {
    "name": "Ganzhou",
    "iso": "CHN",
    "latitude": 25.85,
    "longitude": 114.9333,
    "population": 1285000
  },
  {
    "name": "Sofia",
    "iso": "BGR",
    "latitude": 42.6975,
    "longitude": 23.3242,
    "population": 1281000
  },
  {
    "name": "Zunyi",
    "iso": "CHN",
    "latitude": 27.7113,
    "longitude": 106.9365,
    "population": 1281000
  },
  {
    "name": "Jacksonville, Florida",
    "iso": "USA",
    "latitude": 30.3322,
    "longitude": -81.6557,
    "population": 1280000
  },
  {
    "name": "Dongying",
    "iso": "CHN",
    "latitude": 37.4533,
    "longitude": 118.5785,
    "population": 1276000
  },
  {
    "name": "Mianyang, Sichuan",
    "iso": "CHN",
    "latitude": 31.4839,
    "longitude": 104.737,
    "population": 1276000
  },
  {
    "name": "Kaifeng",
    "iso": "CHN",
    "latitude": 34.7911,
    "longitude": 114.3483,
    "population": 1274000
  },
  {
    "name": "Kazan",
    "iso": "RUS",
    "latitude": 55.7887,
    "longitude": 49.1221,
    "population": 1272000
  },
  {
    "name": "Rizhao",
    "iso": "CHN",
    "latitude": 35.4034,
    "longitude": 119.512,
    "population": 1271000
  },
  {
    "name": "Kisangani",
    "iso": "COD",
    "latitude": 0.5167,
    "longitude": 25.2,
    "population": 1261000
  },
  {
    "name": "Jiaxing",
    "iso": "CHN",
    "latitude": 30.7665,
    "longitude": 120.7482,
    "population": 1260000
  },
  {
    "name": "Nanchong",
    "iso": "CHN",
    "latitude": 30.7951,
    "longitude": 106.0847,
    "population": 1258000
  },
  {
    "name": "Nizhniy Novgorod",
    "iso": "RUS",
    "latitude": 56.3287,
    "longitude": 44.0021,
    "population": 1258000
  },
  {
    "name": "Bareilly",
    "iso": "IND",
    "latitude": 28.35,
    "longitude": 79.4167,
    "population": 1255000
  },
  {
    "name": "Port Elizabeth (Nelson Mandela Bay)",
    "iso": "ZAF",
    "latitude": -33.918,
    "longitude": 25.5701,
    "population": 1254000
  },
  {
    "name": "Antalya",
    "iso": "TUR",
    "latitude": 36.9081,
    "longitude": 30.6956,
    "population": 1254000
  },
  {
    "name": "Ad-Dammam",
    "iso": "SAU",
    "latitude": 26.4344,
    "longitude": 50.1033,
    "population": 1253000
  },
  {
    "name": "Nashville-Davidson",
    "iso": "USA",
    "latitude": 36.161,
    "longitude": -86.783,
    "population": 1249000
  },
  {
    "name": "Ahvaz",
    "iso": "IRN",
    "latitude": 31.3203,
    "longitude": 48.6693,
    "population": 1244000
  },
  {
    "name": "Shiyan",
    "iso": "CHN",
    "latitude": 32.6445,
    "longitude": 110.7836,
    "population": 1241000
  },
  {
    "name": "Florianópolis",
    "iso": "BRA",
    "latitude": -27.5967,
    "longitude": -48.5492,
    "population": 1239000
  },
  {
    "name": "Dublin",
    "iso": "IRL",
    "latitude": 53.3331,
    "longitude": -6.2489,
    "population": 1228000
  },
  {
    "name": "Chelyabinsk",
    "iso": "RUS",
    "latitude": 55.1544,
    "longitude": 61.4297,
    "population": 1228000
  },
  {
    "name": "Fès",
    "iso": "MAR",
    "latitude": 34.0372,
    "longitude": -4.9998,
    "population": 1224000
  },
  {
    "name": "San Luis Potosí",
    "iso": "MEX",
    "latitude": 22.15,
    "longitude": -100.9833,
    "population": 1217000
  },
  {
    "name": "Yingkou",
    "iso": "CHN",
    "latitude": 40.6648,
    "longitude": 122.2283,
    "population": 1214000
  },
  {
    "name": "Pointe-Noire",
    "iso": "COG",
    "latitude": -4.7761,
    "longitude": 11.8635,
    "population": 1214000
  },
  {
    "name": "Barquisimeto",
    "iso": "VEN",
    "latitude": 10.0739,
    "longitude": -69.3228,
    "population": 1214000
  },
  {
    "name": "Aligarh",
    "iso": "IND",
    "latitude": 27.8833,
    "longitude": 78.0833,
    "population": 1211000
  },
  {
    "name": "Mysore",
    "iso": "IND",
    "latitude": 12.2979,
    "longitude": 76.6393,
    "population": 1210000
  },
  {
    "name": "Durg-Bhilainagar",
    "iso": "IND",
    "latitude": 21.1887,
    "longitude": 81.2806,
    "population": 1208000
  },
  {
    "name": "Maoming",
    "iso": "CHN",
    "latitude": 21.6627,
    "longitude": 110.9234,
    "population": 1205000
  },
  {
    "name": "Pekan Baru",
    "iso": "IDN",
    "latitude": 0.5333,
    "longitude": 101.45,
    "population": 1205000
  },
  {
    "name": "Maracay",
    "iso": "VEN",
    "latitude": 10.2469,
    "longitude": -67.5958,
    "population": 1203000
  },
  {
    "name": "Freetown",
    "iso": "SLE",
    "latitude": 8.484,
    "longitude": -13.2299,
    "population": 1202000
  },
  {
    "name": "Providence",
    "iso": "USA",
    "latitude": 41.824,
    "longitude": -71.4177,
    "population": 1200000
  },
  {
    "name": "Tanger",
    "iso": "MAR",
    "latitude": 35.7847,
    "longitude": -5.8128,
    "population": 1198000
  },
  {
    "name": "Moradabad",
    "iso": "IND",
    "latitude": 28.8333,
    "longitude": 78.7833,
    "population": 1197000
  },
  {
    "name": "Liuan",
    "iso": "CHN",
    "latitude": 31.7543,
    "longitude": 116.4981,
    "population": 1196000
  },
  {
    "name": "Tengzhou",
    "iso": "CHN",
    "latitude": 35.0845,
    "longitude": 117.1624,
    "population": 1190000
  },
  {
    "name": "Zhuzhou",
    "iso": "CHN",
    "latitude": 27.8333,
    "longitude": 113.15,
    "population": 1187000
  },
  {
    "name": "Omsk",
    "iso": "RUS",
    "latitude": 55,
    "longitude": 73.4,
    "population": 1182000
  },
  {
    "name": "Zhenjiang, Jiangsu",
    "iso": "CHN",
    "latitude": 32.2027,
    "longitude": 119.4489,
    "population": 1174000
  },
  {
    "name": "Mendoza",
    "iso": "ARG",
    "latitude": -32.8908,
    "longitude": -68.8272,
    "population": 1173000
  },
  {
    "name": "Suzhou, Anhui",
    "iso": "CHN",
    "latitude": 33.6359,
    "longitude": 116.9747,
    "population": 1170000
  },
  {
    "name": "Liuyang",
    "iso": "CHN",
    "latitude": 28.15,
    "longitude": 113.6333,
    "population": 1169000
  },
  {
    "name": "Ruian",
    "iso": "CHN",
    "latitude": 27.7808,
    "longitude": 120.6755,
    "population": 1169000
  },
  {
    "name": "Salt Lake City",
    "iso": "USA",
    "latitude": 40.7547,
    "longitude": -111.8926,
    "population": 1169000
  },
  {
    "name": "Chiang Mai",
    "iso": "THA",
    "latitude": 18.7904,
    "longitude": 98.9847,
    "population": 1167000
  },
  {
    "name": "Astana",
    "iso": "KAZ",
    "latitude": 51.1801,
    "longitude": 71.446,
    "population": 1166000
  },
  {
    "name": "Baoji",
    "iso": "CHN",
    "latitude": 34.3651,
    "longitude": 107.2004,
    "population": 1165000
  },
  {
    "name": "Chifeng",
    "iso": "CHN",
    "latitude": 42.2646,
    "longitude": 118.9152,
    "population": 1165000
  },
  {
    "name": "Tiruchirappalli",
    "iso": "IND",
    "latitude": 10.805,
    "longitude": 78.6856,
    "population": 1165000
  },
  {
    "name": "Tarabulus (Tripoli)",
    "iso": "LBY",
    "latitude": 32.8752,
    "longitude": 13.1875,
    "population": 1165000
  },
  {
    "name": "Bhubaneswar",
    "iso": "IND",
    "latitude": 20.2333,
    "longitude": 85.8333,
    "population": 1163000
  },
  {
    "name": "Samara",
    "iso": "RUS",
    "latitude": 53.2001,
    "longitude": 50.15,
    "population": 1163000
  },
  {
    "name": "Mérida",
    "iso": "MEX",
    "latitude": 20.9667,
    "longitude": -89.6167,
    "population": 1161000
  },
  {
    "name": "Pingdingshan, Henan",
    "iso": "CHN",
    "latitude": 33.7417,
    "longitude": 113.304,
    "population": 1160000
  },
  {
    "name": "Puning",
    "iso": "CHN",
    "latitude": 23.2967,
    "longitude": 116.1647,
    "population": 1160000
  },
  {
    "name": "Bogor",
    "iso": "IDN",
    "latitude": -6.6065,
    "longitude": 106.8019,
    "population": 1160000
  },
  {
    "name": "Benxi",
    "iso": "CHN",
    "latitude": 41.2886,
    "longitude": 123.765,
    "population": 1157000
  },
  {
    "name": "Memphis",
    "iso": "USA",
    "latitude": 35.1408,
    "longitude": -90.0475,
    "population": 1150000
  },
  {
    "name": "Amsterdam",
    "iso": "NLD",
    "latitude": 52.374,
    "longitude": 4.8897,
    "population": 1149000
  },
  {
    "name": "Chandigarh",
    "iso": "IND",
    "latitude": 30.7343,
    "longitude": 76.7933,
    "population": 1148000
  },
  {
    "name": "Jieyang",
    "iso": "CHN",
    "latitude": 23.5526,
    "longitude": 116.3721,
    "population": 1147000
  },
  {
    "name": "Hefa (Haifa)",
    "iso": "ISR",
    "latitude": 32.8133,
    "longitude": 34.9914,
    "population": 1147000
  },
  {
    "name": "Jinzhou",
    "iso": "CHN",
    "latitude": 41.1078,
    "longitude": 121.1417,
    "population": 1145000
  },
  {
    "name": "Nanyang, Henan",
    "iso": "CHN",
    "latitude": 32.9999,
    "longitude": 112.5259,
    "population": 1143000
  },
  {
    "name": "Xiangtan, Hunan",
    "iso": "CHN",
    "latitude": 27.8283,
    "longitude": 112.927,
    "population": 1143000
  },
  {
    "name": "Huaibei",
    "iso": "CHN",
    "latitude": 33.9549,
    "longitude": 116.7929,
    "population": 1142000
  },
  {
    "name": "Krasnoyarsk",
    "iso": "RUS",
    "latitude": 56.0097,
    "longitude": 92.7917,
    "population": 1137000
  },
  {
    "name": "Uyo",
    "iso": "NGA",
    "latitude": 5.0513,
    "longitude": 7.9335,
    "population": 1136000
  },
  {
    "name": "Rostov-na-Donu (Rostov-on-Don)",
    "iso": "RUS",
    "latitude": 47.2178,
    "longitude": 39.7032,
    "population": 1136000
  },
  {
    "name": "Ufa",
    "iso": "RUS",
    "latitude": 54.7852,
    "longitude": 56.0456,
    "population": 1136000
  },
  {
    "name": "Guilin",
    "iso": "CHN",
    "latitude": 25.2819,
    "longitude": 110.2864,
    "population": 1134000
  },
  {
    "name": "Kigali",
    "iso": "RWA",
    "latitude": -1.9474,
    "longitude": 30.0579,
    "population": 1132000
  },
  {
    "name": "Islamabad",
    "iso": "PAK",
    "latitude": 33.7035,
    "longitude": 73.0594,
    "population": 1129000
  },
  {
    "name": "Da Nang",
    "iso": "VNM",
    "latitude": 16.0513,
    "longitude": 108.2124,
    "population": 1125000
  },
  {
    "name": "Jinhua",
    "iso": "CHN",
    "latitude": 29.0807,
    "longitude": 119.6464,
    "population": 1122000
  },
  {
    "name": "Lilongwe",
    "iso": "MWI",
    "latitude": -13.9669,
    "longitude": 33.7873,
    "population": 1122000
  },
  {
    "name": "Mexicali",
    "iso": "MEX",
    "latitude": 32.6519,
    "longitude": -115.4683,
    "population": 1121000
  },
  {
    "name": "Mwanza",
    "iso": "TZA",
    "latitude": -2.5167,
    "longitude": 32.9,
    "population": 1120000
  },
  {
    "name": "Köln (Cologne)",
    "iso": "DEU",
    "latitude": 50.9333,
    "longitude": 6.95,
    "population": 1119000
  },
  {
    "name": "Guwahati (Gauhati)",
    "iso": "IND",
    "latitude": 26.1735,
    "longitude": 91.7503,
    "population": 1117000
  },
  {
    "name": "Hubli-Dharwad",
    "iso": "IND",
    "latitude": 15.4587,
    "longitude": 75.0106,
    "population": 1117000
  },
  {
    "name": "Kaduna",
    "iso": "NGA",
    "latitude": 10.5222,
    "longitude": 7.4383,
    "population": 1113000
  },
  {
    "name": "Maputo",
    "iso": "MOZ",
    "latitude": -25.9653,
    "longitude": 32.5892,
    "population": 1110000
  },
  {
    "name": "San Salvador",
    "iso": "SLV",
    "latitude": 13.6894,
    "longitude": -89.1872,
    "population": 1106000
  },
  {
    "name": "Aguascalientes",
    "iso": "MEX",
    "latitude": 21.8833,
    "longitude": -102.3,
    "population": 1106000
  },
  {
    "name": "Richmond",
    "iso": "USA",
    "latitude": 37.5432,
    "longitude": -77.4382,
    "population": 1105000
  },
  {
    "name": "Salem",
    "iso": "IND",
    "latitude": 11.65,
    "longitude": 78.1667,
    "population": 1102000
  },
  {
    "name": "Quetta",
    "iso": "PAK",
    "latitude": 30.199,
    "longitude": 67.0097,
    "population": 1100000
  },
  {
    "name": "Bandar Lampung",
    "iso": "IDN",
    "latitude": -5.4254,
    "longitude": 105.258,
    "population": 1092000
  },
  {
    "name": "Louisville",
    "iso": "USA",
    "latitude": 38.2419,
    "longitude": -85.7631,
    "population": 1089000
  },
  {
    "name": "Zaozhuang",
    "iso": "CHN",
    "latitude": 34.8647,
    "longitude": 117.5542,
    "population": 1088000
  },
  {
    "name": "Yerevan",
    "iso": "ARM",
    "latitude": 40.182,
    "longitude": 44.5146,
    "population": 1086000
  },
  {
    "name": "Binzhou",
    "iso": "CHN",
    "latitude": 37.3811,
    "longitude": 118.0109,
    "population": 1084000
  },
  {
    "name": "Yongin",
    "iso": "KOR",
    "latitude": 37.2352,
    "longitude": 127.2033,
    "population": 1083000
  },
  {
    "name": "Xinxiang",
    "iso": "CHN",
    "latitude": 35.2989,
    "longitude": 113.9015,
    "population": 1081000
  },
  {
    "name": "Aba",
    "iso": "NGA",
    "latitude": 5.1066,
    "longitude": 7.3667,
    "population": 1081000
  },
  {
    "name": "Bukavu",
    "iso": "COD",
    "latitude": -2.5083,
    "longitude": 28.8608,
    "population": 1078000
  },
  {
    "name": "Tbilisi",
    "iso": "GEO",
    "latitude": 41.6941,
    "longitude": 44.8337,
    "population": 1078000
  },
  {
    "name": "Liupanshui",
    "iso": "CHN",
    "latitude": 26.5923,
    "longitude": 104.8377,
    "population": 1077000
  },
  {
    "name": "Cuernavaca",
    "iso": "MEX",
    "latitude": 18.9167,
    "longitude": -99.25,
    "population": 1075000
  },
  {
    "name": "Perm",
    "iso": "RUS",
    "latitude": 58.0174,
    "longitude": 56.2855,
    "population": 1071000
  },
  {
    "name": "Goyang",
    "iso": "KOR",
    "latitude": 37.6564,
    "longitude": 126.835,
    "population": 1069000
  },
  {
    "name": "Voronezh",
    "iso": "RUS",
    "latitude": 51.672,
    "longitude": 39.1843,
    "population": 1068000
  },
  {
    "name": "Managua",
    "iso": "NIC",
    "latitude": 12.1328,
    "longitude": -86.2504,
    "population": 1064000
  },
  {
    "name": "Pizhou",
    "iso": "CHN",
    "latitude": 34.3114,
    "longitude": 117.9503,
    "population": 1063000
  },
  {
    "name": "Cartagena",
    "iso": "COL",
    "latitude": 10.3997,
    "longitude": -75.5144,
    "population": 1063000
  },
  {
    "name": "Lille",
    "iso": "FRA",
    "latitude": 50.633,
    "longitude": 3.0586,
    "population": 1063000
  },
  {
    "name": "Yueqing",
    "iso": "CHN",
    "latitude": 28.1194,
    "longitude": 120.9612,
    "population": 1061000
  },
  {
    "name": "Shimkent",
    "iso": "KAZ",
    "latitude": 42.3,
    "longitude": 69.6,
    "population": 1058000
  },
  {
    "name": "Abomey-Calavi",
    "iso": "BEN",
    "latitude": 6.4485,
    "longitude": 2.3557,
    "population": 1056000
  },
  {
    "name": "Tasikmalaya",
    "iso": "IDN",
    "latitude": -7.3506,
    "longitude": 108.2172,
    "population": 1056000
  },
  {
    "name": "Changwon",
    "iso": "KOR",
    "latitude": 35.2281,
    "longitude": 128.6811,
    "population": 1056000
  },
  {
    "name": "Chihuahua",
    "iso": "MEX",
    "latitude": 28.6333,
    "longitude": -106.0833,
    "population": 1055000
  },
  {
    "name": "Jalandhar",
    "iso": "IND",
    "latitude": 31.3256,
    "longitude": 75.5792,
    "population": 1054000
  },
  {
    "name": "Saharanpur",
    "iso": "IND",
    "latitude": 29.9667,
    "longitude": 77.55,
    "population": 1054000
  },
  {
    "name": "Panjin",
    "iso": "CHN",
    "latitude": 41.1219,
    "longitude": 122.0701,
    "population": 1053000
  },
  {
    "name": "Nnewi",
    "iso": "NGA",
    "latitude": 6.0199,
    "longitude": 6.9148,
    "population": 1051000
  },
  {
    "name": "Antwerpen",
    "iso": "BEL",
    "latitude": 51.2199,
    "longitude": 4.4035,
    "population": 1042000
  },
  {
    "name": "Oslo",
    "iso": "NOR",
    "latitude": 59.9127,
    "longitude": 10.7461,
    "population": 1041000
  },
  {
    "name": "Luohe",
    "iso": "CHN",
    "latitude": 33.5731,
    "longitude": 114.0241,
    "population": 1040000
  },
  {
    "name": "Diyarbakir",
    "iso": "TUR",
    "latitude": 37.9158,
    "longitude": 40.2189,
    "population": 1039000
  },
  {
    "name": "Jingzhou, Hubei",
    "iso": "CHN",
    "latitude": 30.3276,
    "longitude": 112.2484,
    "population": 1038000
  },
  {
    "name": "Bishkek",
    "iso": "KGZ",
    "latitude": 42.87,
    "longitude": 74.59,
    "population": 1038000
  },
  {
    "name": "Wenling",
    "iso": "CHN",
    "latitude": 28.3758,
    "longitude": 121.3781,
    "population": 1037000
  },
  {
    "name": "Fuyang",
    "iso": "CHN",
    "latitude": 32.8895,
    "longitude": 115.8152,
    "population": 1036000
  },
  {
    "name": "Solapur",
    "iso": "IND",
    "latitude": 17.6833,
    "longitude": 75.9167,
    "population": 1031000
  },
  {
    "name": "Shangrao",
    "iso": "CHN",
    "latitude": 28.4604,
    "longitude": 117.9531,
    "population": 1029000
  },
  {
    "name": "Kermanshah",
    "iso": "IRN",
    "latitude": 34.3142,
    "longitude": 47.065,
    "population": 1026000
  },
  {
    "name": "Zhaoqing",
    "iso": "CHN",
    "latitude": 23.0512,
    "longitude": 112.4597,
    "population": 1024000
  },
  {
    "name": "Toulouse",
    "iso": "FRA",
    "latitude": 43.6043,
    "longitude": 1.4437,
    "population": 1024000
  },
  {
    "name": "Johor Bahru",
    "iso": "MYS",
    "latitude": 1.4655,
    "longitude": 103.7578,
    "population": 1024000
  },
  {
    "name": "Teresina",
    "iso": "BRA",
    "latitude": -5.0892,
    "longitude": -42.8019,
    "population": 1021000
  },
  {
    "name": "Siliguri",
    "iso": "IND",
    "latitude": 26.7161,
    "longitude": 88.4236,
    "population": 1020000
  },
  {
    "name": "Ma'anshan",
    "iso": "CHN",
    "latitude": 31.7071,
    "longitude": 118.5038,
    "population": 1019000
  },
  {
    "name": "Mersin",
    "iso": "TUR",
    "latitude": 36.8,
    "longitude": 34.6333,
    "population": 1016000
  },
  {
    "name": "Bujumbura",
    "iso": "BDI",
    "latitude": -3.3822,
    "longitude": 29.3644,
    "population": 1013000
  },
  {
    "name": "Kirkuk",
    "iso": "IRQ",
    "latitude": 35.4681,
    "longitude": 44.3922,
    "population": 1013000
  },
  {
    "name": "Bien Hoa",
    "iso": "VNM",
    "latitude": 10.95,
    "longitude": 106.8167,
    "population": 1013000
  },
  {
    "name": "McAllen",
    "iso": "USA",
    "latitude": 26.2163,
    "longitude": -98.2364,
    "population": 1012000
  },
  {
    "name": "Yueyang",
    "iso": "CHN",
    "latitude": 29.3722,
    "longitude": 113.1153,
    "population": 1010000
  },
  {
    "name": "Samarinda",
    "iso": "IDN",
    "latitude": -0.4948,
    "longitude": 117.1436,
    "population": 1010000
  },
  {
    "name": "Rotterdam",
    "iso": "NLD",
    "latitude": 51.9225,
    "longitude": 4.4792,
    "population": 1010000
  },
  {
    "name": "Aracaju",
    "iso": "BRA",
    "latitude": -10.9111,
    "longitude": -37.0717,
    "population": 1009000
  },
  {
    "name": "Odesa",
    "iso": "UKR",
    "latitude": 46.4775,
    "longitude": 30.7326,
    "population": 1009000
  },
  {
    "name": "Volgograd",
    "iso": "RUS",
    "latitude": 48.7194,
    "longitude": 44.5018,
    "population": 1005000
  },
  {
    "name": "Marrakech",
    "iso": "MAR",
    "latitude": 31.6315,
    "longitude": -8.0083,
    "population": 1003000
  },
  {
    "name": "Tampico",
    "iso": "MEX",
    "latitude": 22.2167,
    "longitude": -97.85,
    "population": 1001000
  },
  {
    "name": "Hartford",
    "iso": "USA",
    "latitude": 41.7637,
    "longitude": -72.6851,
    "population": 999000
  },
  {
    "name": "Bazhong",
    "iso": "CHN",
    "latitude": 31.8662,
    "longitude": 106.7325,
    "population": 992000
  },
  {
    "name": "New Orleans",
    "iso": "USA",
    "latitude": 29.9547,
    "longitude": -90.0751,
    "population": 992000
  },
  {
    "name": "Fuzhou, Jiangxi",
    "iso": "CHN",
    "latitude": 27.9812,
    "longitude": 116.3557,
    "population": 990000
  },
  {
    "name": "Hargeysa",
    "iso": "SOM",
    "latitude": 9.56,
    "longitude": 44.065,
    "population": 989000
  },
  {
    "name": "Oklahoma City",
    "iso": "USA",
    "latitude": 35.4675,
    "longitude": -97.5164,
    "population": 989000
  },
  {
    "name": "Huzhou",
    "iso": "CHN",
    "latitude": 30.8703,
    "longitude": 120.0933,
    "population": 988000
  },
  {
    "name": "Leshan",
    "iso": "CHN",
    "latitude": 29.5762,
    "longitude": 103.759,
    "population": 987000
  },
  {
    "name": "Denpasar",
    "iso": "IDN",
    "latitude": -8.65,
    "longitude": 115.2167,
    "population": 987000
  },
  {
    "name": "San Miguel de Tucumán",
    "iso": "ARG",
    "latitude": -26.8241,
    "longitude": -65.2226,
    "population": 986000
  },
  {
    "name": "Dezhou",
    "iso": "CHN",
    "latitude": 37.4518,
    "longitude": 116.301,
    "population": 986000
  },
  {
    "name": "Valparaíso",
    "iso": "CHL",
    "latitude": -33.0393,
    "longitude": -71.6273,
    "population": 984000
  },
  {
    "name": "Saltillo",
    "iso": "MEX",
    "latitude": 25.4167,
    "longitude": -101,
    "population": 984000
  },
  {
    "name": "Tucson",
    "iso": "USA",
    "latitude": 32.2145,
    "longitude": -110.9182,
    "population": 982000
  },
  {
    "name": "Padang",
    "iso": "IDN",
    "latitude": -0.9492,
    "longitude": 100.3543,
    "population": 980000
  },
  {
    "name": "Cebu City",
    "iso": "PHL",
    "latitude": 10.3167,
    "longitude": 123.8907,
    "population": 980000
  },
  {
    "name": "Adan (Aden)",
    "iso": "YEM",
    "latitude": 12.7988,
    "longitude": 45.0359,
    "population": 980000
  },
  {
    "name": "Acapulco de Juárez",
    "iso": "MEX",
    "latitude": 16.8634,
    "longitude": -99.8901,
    "population": 979000
  },
  {
    "name": "Kayseri",
    "iso": "TUR",
    "latitude": 38.7322,
    "longitude": 35.4853,
    "population": 974000
  },
  {
    "name": "Bobo-Dioulasso",
    "iso": "BFA",
    "latitude": 11.1772,
    "longitude": -4.2979,
    "population": 972000
  },
  {
    "name": "Xiongan",
    "iso": "CHN",
    "latitude": 38.9796,
    "longitude": 116.079,
    "population": 970000
  },
  {
    "name": "Bordeaux",
    "iso": "FRA",
    "latitude": 44.8404,
    "longitude": -0.5805,
    "population": 969000
  },
  {
    "name": "Xuchang",
    "iso": "CHN",
    "latitude": 34.0167,
    "longitude": 113.8167,
    "population": 968000
  },
  {
    "name": "Songkhla",
    "iso": "THA",
    "latitude": 7.1988,
    "longitude": 100.5951,
    "population": 967000
  },
  {
    "name": "Asmara",
    "iso": "ERI",
    "latitude": 15.3333,
    "longitude": 38.9333,
    "population": 963000
  },
  {
    "name": "Nonthaburi",
    "iso": "THA",
    "latitude": 13.8602,
    "longitude": 100.5218,
    "population": 963000
  },
  {
    "name": "Chenzhou",
    "iso": "CHN",
    "latitude": 25.8,
    "longitude": 113.0333,
    "population": 960000
  },
  {
    "name": "Warangal",
    "iso": "IND",
    "latitude": 18,
    "longitude": 79.5833,
    "population": 960000
  },
  {
    "name": "Krasnodar",
    "iso": "RUS",
    "latitude": 45.0488,
    "longitude": 38.9725,
    "population": 957000
  },
  {
    "name": "Dnipro",
    "iso": "UKR",
    "latitude": 48.45,
    "longitude": 34.9833,
    "population": 957000
  },
  {
    "name": "Khulna",
    "iso": "BGD",
    "latitude": 22.8098,
    "longitude": 89.5644,
    "population": 954000
  },
  {
    "name": "Bridgeport-Stamford",
    "iso": "USA",
    "latitude": 41.167,
    "longitude": -73.2048,
    "population": 953000
  },
  {
    "name": "El Paso",
    "iso": "USA",
    "latitude": 31.7776,
    "longitude": -106.4425,
    "population": 951000
  },
  {
    "name": "Jixi, Heilongjiang",
    "iso": "CHN",
    "latitude": 45.2958,
    "longitude": 130.9701,
    "population": 950000
  },
  {
    "name": "Ilorin",
    "iso": "NGA",
    "latitude": 8.5,
    "longitude": 4.55,
    "population": 950000
  },
  {
    "name": "Morelia",
    "iso": "MEX",
    "latitude": 19.7008,
    "longitude": -101.1844,
    "population": 949000
  },
  {
    "name": "Sekondi Takoradi",
    "iso": "GHA",
    "latitude": 4.934,
    "longitude": -1.7137,
    "population": 946000
  },
  {
    "name": "Cancún",
    "iso": "MEX",
    "latitude": 21.1743,
    "longitude": -86.8466,
    "population": 944000
  },
  {
    "name": "Seongnam",
    "iso": "KOR",
    "latitude": 37.4386,
    "longitude": 127.1378,
    "population": 944000
  },
  {
    "name": "Qujing",
    "iso": "CHN",
    "latitude": 25.4894,
    "longitude": 103.7977,
    "population": 942000
  },
  {
    "name": "Nice-Cannes",
    "iso": "FRA",
    "latitude": 43.6646,
    "longitude": 7.1534,
    "population": 942000
  },
  {
    "name": "Changshu",
    "iso": "CHN",
    "latitude": 31.6539,
    "longitude": 120.7467,
    "population": 939000
  },
  {
    "name": "Ikorodu",
    "iso": "NGA",
    "latitude": 6.6087,
    "longitude": 3.5108,
    "population": 938000
  },
  {
    "name": "Xintai",
    "iso": "CHN",
    "latitude": 35.9006,
    "longitude": 117.7519,
    "population": 936000
  },
  {
    "name": "Cúcuta",
    "iso": "COL",
    "latitude": 7.8939,
    "longitude": -72.5078,
    "population": 933000
  },
  {
    "name": "Jerusalem",
    "iso": "ISR",
    "latitude": 31.769,
    "longitude": 35.2163,
    "population": 932000
  },
  {
    "name": "Blantyre-Limbe",
    "iso": "MWI",
    "latitude": -15.785,
    "longitude": 35.0085,
    "population": 932000
  },
  {
    "name": "Pingxiang, Jiangxi",
    "iso": "CHN",
    "latitude": 27.6348,
    "longitude": 113.8477,
    "population": 929000
  },
  {
    "name": "Southampton/Portsmouth (South Hampshire)",
    "iso": "GBR",
    "latitude": 50.9117,
    "longitude": -1.4036,
    "population": 928000
  },
  {
    "name": "Mudanjiang",
    "iso": "CHN",
    "latitude": 44.5833,
    "longitude": 129.6,
    "population": 926000
  },
  {
    "name": "Agadir",
    "iso": "MAR",
    "latitude": 30.4248,
    "longitude": -9.5937,
    "population": 924000
  },
  {
    "name": "Arequipa",
    "iso": "PER",
    "latitude": -16.3989,
    "longitude": -71.535,
    "population": 923000
  },
  {
    "name": "Nyala",
    "iso": "SDN",
    "latitude": 12.05,
    "longitude": 24.8833,
    "population": 923000
  },
  {
    "name": "Hamah",
    "iso": "SYR",
    "latitude": 35.1318,
    "longitude": 36.7578,
    "population": 922000
  },
  {
    "name": "Tshikapa",
    "iso": "COD",
    "latitude": -6.4162,
    "longitude": 20.8,
    "population": 919000
  },
  {
    "name": "Dehradun",
    "iso": "IND",
    "latitude": 30.3167,
    "longitude": 78.0333,
    "population": 919000
  },
  {
    "name": "Veracruz",
    "iso": "MEX",
    "latitude": 19.2,
    "longitude": -96.1333,
    "population": 919000
  },
  {
    "name": "Yichun, Jiangxi",
    "iso": "CHN",
    "latitude": 27.8062,
    "longitude": 114.3892,
    "population": 918000
  },
  {
    "name": "Ciudad Guayana",
    "iso": "VEN",
    "latitude": 8.3512,
    "longitude": -62.641,
    "population": 918000
  },
  {
    "name": "Zamboanga City",
    "iso": "PHL",
    "latitude": 6.9103,
    "longitude": 122.075,
    "population": 917000
  },
  {
    "name": "Dushanbe",
    "iso": "TJK",
    "latitude": 38.5358,
    "longitude": 68.7791,
    "population": 916000
  },
  {
    "name": "Albuquerque",
    "iso": "USA",
    "latitude": 35.1107,
    "longitude": -106.61,
    "population": 915000
  },
  {
    "name": "Pathum Thani",
    "iso": "THA",
    "latitude": 14.0135,
    "longitude": 100.5305,
    "population": 914000
  },
  {
    "name": "Jiujiang",
    "iso": "CHN",
    "latitude": 29.7041,
    "longitude": 116.0013,
    "population": 913000
  },
  {
    "name": "Ulsan",
    "iso": "KOR",
    "latitude": 35.5372,
    "longitude": 129.3167,
    "population": 910000
  },
  {
    "name": "Rajshahi",
    "iso": "BGD",
    "latitude": 24.3667,
    "longitude": 88.6,
    "population": 908000
  },
  {
    "name": "Laiwu",
    "iso": "CHN",
    "latitude": 36.2074,
    "longitude": 117.672,
    "population": 908000
  },
  {
    "name": "Donetsk",
    "iso": "UKR",
    "latitude": 48.023,
    "longitude": 37.8022,
    "population": 906000
  },
  {
    "name": "San Pedro Sula",
    "iso": "HND",
    "latitude": 15.5,
    "longitude": -88.0333,
    "population": 903000
  },
  {
    "name": "Bengbu",
    "iso": "CHN",
    "latitude": 32.9408,
    "longitude": 117.3608,
    "population": 902000
  },
  {
    "name": "Liverpool",
    "iso": "GBR",
    "latitude": 53.4106,
    "longitude": -2.9779,
    "population": 902000
  },
  {
    "name": "Wahran (Oran)",
    "iso": "DZA",
    "latitude": 35.6911,
    "longitude": -0.6417,
    "population": 899000
  },
  {
    "name": "Reynosa",
    "iso": "MEX",
    "latitude": 26.0833,
    "longitude": -98.2833,
    "population": 899000
  },
  {
    "name": "Villahermosa",
    "iso": "MEX",
    "latitude": 17.9833,
    "longitude": -92.9167,
    "population": 898000
  },
  {
    "name": "West Rand",
    "iso": "ZAF",
    "latitude": -26.12,
    "longitude": 27.75,
    "population": 898000
  },
  {
    "name": "Campo Grande",
    "iso": "BRA",
    "latitude": -20.4567,
    "longitude": -54.6185,
    "population": 897000
  },
  {
    "name": "Jos",
    "iso": "NGA",
    "latitude": 9.9167,
    "longitude": 8.9,
    "population": 895000
  },
  {
    "name": "Bergamo",
    "iso": "ITA",
    "latitude": 45.698,
    "longitude": 9.669,
    "population": 892000
  },
  {
    "name": "Honolulu",
    "iso": "USA",
    "latitude": 21.309,
    "longitude": -157.8262,
    "population": 892000
  },
  {
    "name": "Guigang",
    "iso": "CHN",
    "latitude": 23.0964,
    "longitude": 109.6092,
    "population": 891000
  },
  {
    "name": "Guiping",
    "iso": "CHN",
    "latitude": 23.3934,
    "longitude": 110.0744,
    "population": 891000
  },
  {
    "name": "Zhucheng",
    "iso": "CHN",
    "latitude": 35.9947,
    "longitude": 119.3975,
    "population": 891000
  },
  {
    "name": "Buffalo",
    "iso": "USA",
    "latitude": 42.8879,
    "longitude": -78.8716,
    "population": 891000
  },
  {
    "name": "Yangjiang",
    "iso": "CHN",
    "latitude": 21.8614,
    "longitude": 111.9563,
    "population": 890000
  },
  {
    "name": "Bangui",
    "iso": "CAF",
    "latitude": 4.3612,
    "longitude": 18.555,
    "population": 889000
  },
  {
    "name": "Malang",
    "iso": "IDN",
    "latitude": -7.9797,
    "longitude": 112.6304,
    "population": 887000
  },
  {
    "name": "Londrina",
    "iso": "BRA",
    "latitude": -23.3103,
    "longitude": -51.1628,
    "population": 886000
  },
  {
    "name": "La Plata",
    "iso": "ARG",
    "latitude": -34.9215,
    "longitude": -57.9545,
    "population": 884000
  },
  {
    "name": "Concepción",
    "iso": "CHL",
    "latitude": -36.827,
    "longitude": -73.0498,
    "population": 881000
  },
  {
    "name": "Misratah",
    "iso": "LBY",
    "latitude": 32.3754,
    "longitude": 15.0925,
    "population": 881000
  },
  {
    "name": "Antipolo",
    "iso": "PHL",
    "latitude": 14.6235,
    "longitude": 121.1245,
    "population": 881000
  },
  {
    "name": "Chengde",
    "iso": "CHN",
    "latitude": 40.9672,
    "longitude": 117.9322,
    "population": 880000
  },
  {
    "name": "Dandong",
    "iso": "CHN",
    "latitude": 40.1198,
    "longitude": 124.3739,
    "population": 877000
  },
  {
    "name": "Najaf",
    "iso": "IRQ",
    "latitude": 31.9973,
    "longitude": 44.3314,
    "population": 874000
  },
  {
    "name": "Owerri",
    "iso": "NGA",
    "latitude": 5.4833,
    "longitude": 7.0304,
    "population": 873000
  },
  {
    "name": "Zhangzhou",
    "iso": "CHN",
    "latitude": 24.5133,
    "longitude": 117.6556,
    "population": 872000
  },
  {
    "name": "Tianmen",
    "iso": "CHN",
    "latitude": 30.6534,
    "longitude": 113.1605,
    "population": 870000
  },
  {
    "name": "Hermosillo",
    "iso": "MEX",
    "latitude": 29.0845,
    "longitude": -110.9672,
    "population": 868000
  },
  {
    "name": "Trujillo",
    "iso": "PER",
    "latitude": -8.116,
    "longitude": -79.03,
    "population": 865000
  },
  {
    "name": "Bhiwandi",
    "iso": "IND",
    "latitude": 19.3,
    "longitude": 73.0667,
    "population": 859000
  },
  {
    "name": "Linfen",
    "iso": "CHN",
    "latitude": 36.0889,
    "longitude": 111.5189,
    "population": 858000
  },
  {
    "name": "Xinyu",
    "iso": "CHN",
    "latitude": 27.8043,
    "longitude": 114.9334,
    "population": 858000
  },
  {
    "name": "Deyang",
    "iso": "CHN",
    "latitude": 31.1302,
    "longitude": 104.382,
    "population": 857000
  },
  {
    "name": "Hengshui",
    "iso": "CHN",
    "latitude": 37.7411,
    "longitude": 115.6781,
    "population": 857000
  },
  {
    "name": "Liaoyang",
    "iso": "CHN",
    "latitude": 41.2719,
    "longitude": 123.1731,
    "population": 856000
  },
  {
    "name": "Warri",
    "iso": "NGA",
    "latitude": 5.5167,
    "longitude": 5.75,
    "population": 856000
  },
  {
    "name": "Guntur",
    "iso": "IND",
    "latitude": 16.3,
    "longitude": 80.45,
    "population": 854000
  },
  {
    "name": "Soshanguve",
    "iso": "ZAF",
    "latitude": -25.4729,
    "longitude": 28.0992,
    "population": 853000
  },
  {
    "name": "Sylhet",
    "iso": "BGD",
    "latitude": 24.8967,
    "longitude": 91.8717,
    "population": 852000
  },
  {
    "name": "Leiyang",
    "iso": "CHN",
    "latitude": 26.4169,
    "longitude": 112.8503,
    "population": 851000
  },
  {
    "name": "Palermo",
    "iso": "ITA",
    "latitude": 38.1158,
    "longitude": 13.3598,
    "population": 851000
  },
  {
    "name": "Cape Coral",
    "iso": "USA",
    "latitude": 26.6396,
    "longitude": -81.9825,
    "population": 851000
  },
  {
    "name": "Tainan",
    "iso": "TWN",
    "latitude": 23.1316,
    "longitude": 120.259,
    "population": 850000
  },
  {
    "name": "Tuxtla Gutierrez",
    "iso": "MEX",
    "latitude": 16.75,
    "longitude": -93.1167,
    "population": 848000
  },
  {
    "name": "Nampula",
    "iso": "MOZ",
    "latitude": -15.1165,
    "longitude": 39.2666,
    "population": 848000
  },
  {
    "name": "Temecula-Murrieta",
    "iso": "USA",
    "latitude": 33.5364,
    "longitude": -117.1631,
    "population": 848000
  },
  {
    "name": "Changzhi",
    "iso": "CHN",
    "latitude": 36.1921,
    "longitude": 113.1155,
    "population": 846000
  },
  {
    "name": "Irbil (Erbil)",
    "iso": "IRQ",
    "latitude": 36.1926,
    "longitude": 44.0106,
    "population": 846000
  },
  {
    "name": "Ashgabat",
    "iso": "TKM",
    "latitude": 37.95,
    "longitude": 58.3833,
    "population": 846000
  },
  {
    "name": "Bahawalpur",
    "iso": "PAK",
    "latitude": 29.4,
    "longitude": 71.6833,
    "population": 845000
  },
  {
    "name": "Ta'izz",
    "iso": "YEM",
    "latitude": 13.5795,
    "longitude": 44.0209,
    "population": 845000
  },
  {
    "name": "Jiangyin",
    "iso": "CHN",
    "latitude": 31.9157,
    "longitude": 120.281,
    "population": 843000
  },
  {
    "name": "Saratov",
    "iso": "RUS",
    "latitude": 51.5406,
    "longitude": 46.0086,
    "population": 843000
  },
  {
    "name": "Tyumen",
    "iso": "RUS",
    "latitude": 57.1522,
    "longitude": 65.5272,
    "population": 843000
  },
  {
    "name": "Birmingham",
    "iso": "USA",
    "latitude": 33.5157,
    "longitude": -86.8011,
    "population": 842000
  },
  {
    "name": "Fuxin",
    "iso": "CHN",
    "latitude": 42.0156,
    "longitude": 121.6589,
    "population": 839000
  },
  {
    "name": "Culiacán",
    "iso": "MEX",
    "latitude": 24.7994,
    "longitude": -107.3897,
    "population": 839000
  },
  {
    "name": "Hufuf-Mubarraz",
    "iso": "SAU",
    "latitude": 25.41,
    "longitude": 49.5808,
    "population": 837000
  },
  {
    "name": "Puducherry",
    "iso": "IND",
    "latitude": 11.93,
    "longitude": 79.83,
    "population": 836000
  },
  {
    "name": "Omaha",
    "iso": "USA",
    "latitude": 41.2586,
    "longitude": -95.9378,
    "population": 835000
  },
  {
    "name": "Libreville",
    "iso": "GAB",
    "latitude": 0.3925,
    "longitude": 9.4537,
    "population": 834000
  },
  {
    "name": "Valencia",
    "iso": "ESP",
    "latitude": 39.4698,
    "longitude": -0.3774,
    "population": 834000
  },
  {
    "name": "Bucheon",
    "iso": "KOR",
    "latitude": 37.4989,
    "longitude": 126.7831,
    "population": 832000
  },
  {
    "name": "Xingtai",
    "iso": "CHN",
    "latitude": 37.0631,
    "longitude": 114.4942,
    "population": 831000
  },
  {
    "name": "Changde",
    "iso": "CHN",
    "latitude": 29.0464,
    "longitude": 111.6783,
    "population": 830000
  },
  {
    "name": "Lubango",
    "iso": "AGO",
    "latitude": -14.9172,
    "longitude": 13.4925,
    "population": 828000
  },
  {
    "name": "Huangshi",
    "iso": "CHN",
    "latitude": 30.2068,
    "longitude": 115.0855,
    "population": 828000
  },
  {
    "name": "Shangqiu",
    "iso": "CHN",
    "latitude": 34.4244,
    "longitude": 115.6514,
    "population": 827000
  },
  {
    "name": "Québec",
    "iso": "CAN",
    "latitude": 46.8123,
    "longitude": -71.2145,
    "population": 826000
  },
  {
    "name": "Banghazi",
    "iso": "LBY",
    "latitude": 32.1167,
    "longitude": 20.0667,
    "population": 824000
  },
  {
    "name": "Luzhou",
    "iso": "CHN",
    "latitude": 28.8775,
    "longitude": 105.4408,
    "population": 823000
  },
  {
    "name": "Baishan",
    "iso": "CHN",
    "latitude": 41.9373,
    "longitude": 126.4229,
    "population": 822000
  },
  {
    "name": "Firozabad",
    "iso": "IND",
    "latitude": 27.15,
    "longitude": 78.4167,
    "population": 821000
  },
  {
    "name": "Winnipeg",
    "iso": "CAN",
    "latitude": 49.8955,
    "longitude": -97.1294,
    "population": 817000
  },
  {
    "name": "Yibin",
    "iso": "CHN",
    "latitude": 28.7667,
    "longitude": 104.6238,
    "population": 814000
  },
  {
    "name": "Ipoh",
    "iso": "MYS",
    "latitude": 4.5833,
    "longitude": 101.0833,
    "population": 814000
  },
  {
    "name": "Liling",
    "iso": "CHN",
    "latitude": 27.6667,
    "longitude": 113.5,
    "population": 813000
  },
  {
    "name": "Thessaloniki",
    "iso": "GRC",
    "latitude": 40.6403,
    "longitude": 22.9439,
    "population": 812000
  },
  {
    "name": "Newcastle upon Tyne",
    "iso": "GBR",
    "latitude": 54.9733,
    "longitude": -1.614,
    "population": 809000
  },
  {
    "name": "Bologna",
    "iso": "ITA",
    "latitude": 44.4938,
    "longitude": 11.3388,
    "population": 806000
  },
  {
    "name": "Niigata",
    "iso": "JPN",
    "latitude": 37.9139,
    "longitude": 139.0327,
    "population": 804000
  },
  {
    "name": "Xinyang",
    "iso": "CHN",
    "latitude": 32.1289,
    "longitude": 114.0746,
    "population": 797000
  },
  {
    "name": "Heze",
    "iso": "CHN",
    "latitude": 35.2451,
    "longitude": 115.4598,
    "population": 795000
  },
  {
    "name": "Yangquan",
    "iso": "CHN",
    "latitude": 37.8558,
    "longitude": 113.5826,
    "population": 794000
  },
  {
    "name": "Barcelona-Puerto La Cruz",
    "iso": "VEN",
    "latitude": 10.2167,
    "longitude": -64.6167,
    "population": 794000
  },
  {
    "name": "Orumiyeh",
    "iso": "IRN",
    "latitude": 37.5527,
    "longitude": 45.0761,
    "population": 793000
  },
  {
    "name": "Xinghua",
    "iso": "CHN",
    "latitude": 32.9373,
    "longitude": 119.8387,
    "population": 791000
  },
  {
    "name": "Nottingham",
    "iso": "GBR",
    "latitude": 52.9536,
    "longitude": -1.1505,
    "population": 788000
  },
  {
    "name": "Sorocaba",
    "iso": "BRA",
    "latitude": -23.5017,
    "longitude": -47.4581,
    "population": 786000
  },
  {
    "name": "Maiduguri",
    "iso": "NGA",
    "latitude": 11.8464,
    "longitude": 13.1603,
    "population": 786000
  },
  {
    "name": "Eskisehir",
    "iso": "TUR",
    "latitude": 39.7767,
    "longitude": 30.5206,
    "population": 784000
  },
  {
    "name": "Haicheng",
    "iso": "CHN",
    "latitude": 40.8552,
    "longitude": 122.7434,
    "population": 783000
  },
  {
    "name": "Xiaogan",
    "iso": "CHN",
    "latitude": 30.9256,
    "longitude": 113.9175,
    "population": 783000
  },
  {
    "name": "Yongzhou",
    "iso": "CHN",
    "latitude": 26.4351,
    "longitude": 111.6063,
    "population": 782000
  },
  {
    "name": "Cabinda",
    "iso": "AGO",
    "latitude": -5.55,
    "longitude": 12.2,
    "population": 778000
  },
  {
    "name": "Zhuji",
    "iso": "CHN",
    "latitude": 29.7132,
    "longitude": 120.2368,
    "population": 778000
  },
  {
    "name": "Frankfurt am Main",
    "iso": "DEU",
    "latitude": 50.1167,
    "longitude": 8.6833,
    "population": 777000
  },
  {
    "name": "Xalapa",
    "iso": "MEX",
    "latitude": 19.5377,
    "longitude": -96.9137,
    "population": 776000
  },
  {
    "name": "Bogra",
    "iso": "BGD",
    "latitude": 24.85,
    "longitude": 89.3667,
    "population": 775000
  },
  {
    "name": "Huludao",
    "iso": "CHN",
    "latitude": 40.7524,
    "longitude": 120.8355,
    "population": 775000
  },
  {
    "name": "Umuahia",
    "iso": "NGA",
    "latitude": 5.5263,
    "longitude": 7.4896,
    "population": 774000
  },
  {
    "name": "Vereeniging",
    "iso": "ZAF",
    "latitude": -26.6731,
    "longitude": 27.9262,
    "population": 774000
  },
  {
    "name": "Nakhon Ratchasima",
    "iso": "THA",
    "latitude": 14.9707,
    "longitude": 102.102,
    "population": 774000
  },
  {
    "name": "Enugu",
    "iso": "NGA",
    "latitude": 6.4402,
    "longitude": 7.4943,
    "population": 773000
  },
  {
    "name": "Bikaner",
    "iso": "IND",
    "latitude": 28.0167,
    "longitude": 73.3,
    "population": 772000
  },
  {
    "name": "Kraków (Cracow)",
    "iso": "POL",
    "latitude": 50.0668,
    "longitude": 19.9425,
    "population": 769000
  },
  {
    "name": "Fresno",
    "iso": "USA",
    "latitude": 36.7545,
    "longitude": -119.7711,
    "population": 769000
  },
  {
    "name": "Hamilton",
    "iso": "CAN",
    "latitude": 43.2495,
    "longitude": -79.8475,
    "population": 767000
  },
  {
    "name": "Jiaozuo",
    "iso": "CHN",
    "latitude": 35.2397,
    "longitude": 113.2331,
    "population": 767000
  },
  {
    "name": "Provo-Orem",
    "iso": "USA",
    "latitude": 40.2338,
    "longitude": -111.6585,
    "population": 766000
  },
  {
    "name": "Tulsa",
    "iso": "USA",
    "latitude": 36.1313,
    "longitude": -95.9373,
    "population": 766000
  },
  {
    "name": "Tianshui",
    "iso": "CHN",
    "latitude": 34.5809,
    "longitude": 105.7237,
    "population": 765000
  },
  {
    "name": "Cherthala",
    "iso": "IND",
    "latitude": 9.6835,
    "longitude": 76.3367,
    "population": 764000
  },
  {
    "name": "Allentown-Bethlehem",
    "iso": "USA",
    "latitude": 40.6091,
    "longitude": -75.476,
    "population": 763000
  },
  {
    "name": "Kuerle",
    "iso": "CHN",
    "latitude": 41.7646,
    "longitude": 86.1472,
    "population": 761000
  },
  {
    "name": "Liaocheng",
    "iso": "CHN",
    "latitude": 36.4551,
    "longitude": 115.9826,
    "population": 761000
  },
  {
    "name": "Shaoguan",
    "iso": "CHN",
    "latitude": 24.8,
    "longitude": 113.5833,
    "population": 761000
  },
  {
    "name": "Ansan",
    "iso": "KOR",
    "latitude": 37.3236,
    "longitude": 126.8219,
    "population": 761000
  },
  {
    "name": "Quzhou",
    "iso": "CHN",
    "latitude": 28.9594,
    "longitude": 118.8686,
    "population": 758000
  },
  {
    "name": "Gorakhpur",
    "iso": "IND",
    "latitude": 26.7599,
    "longitude": 83.3714,
    "population": 758000
  },
  {
    "name": "Cagayan de Oro City",
    "iso": "PHL",
    "latitude": 8.4822,
    "longitude": 124.6472,
    "population": 753000
  },
  {
    "name": "Huaihua",
    "iso": "CHN",
    "latitude": 27.5494,
    "longitude": 109.9592,
    "population": 752000
  },
  {
    "name": "Amravati",
    "iso": "IND",
    "latitude": 20.9333,
    "longitude": 77.75,
    "population": 752000
  },